property_type,property_subtype,price,living_area_m2,bedrooms,bathrooms,address,postal_code,city,latitude,longitude,building_year,state_of_the_building,furnished,has_garage,parking_count,kitchen_equipped,has_elevator,facades,floors_total,has_garden,garden_area_m2,has_terrace,total_area_m2,epc_score,region,province,nearby_city,km_from_nearby_city,is_nearby_city_prestigious,floor_number,property_url,coord_swapped,price_per_m2
House,residence,550000.0,250.0,4.0,1.0,Rue des Nonnes 32A,4400,Flemalle,50.6013732,5.420544,2019.0,New,0,1,1.0,Fully equipped,0,4.0,2.0,1,250.0,1,780.0,A+,Wallonia,Liège,Liège,11.8,0,,https://immovlan.be/en/detail/residence/for-sale/4400/flemalle/vbd65018,False,2200.0
Apartment,apartment,200000.0,57.0,1.0,1.0,Avenue Louise 32A,1050,Elsene,50.8345171,4.3574643,,Normal,0,0,,,1,2.0,,0,,1,,B,Brussels,Brussels Capital Region,Bruxelles,1.8,0,2.0,https://immovlan.be/en/detail/apartment/for-sale/1050/elsene/vbe35215,False,3509.0
Apartment,duplex,189000.0,115.0,1.0,1.0,,7500,Tournai,50.6056059,3.3880367,2010.0,Excellent,0,0,,,0,,,0,,1,,G,Wallonia,Hainaut,Tournai,0.1,0,,https://immovlan.be/en/detail/duplex/for-sale/7500/tournai/vbe33657,False,1643.0
House,residence,549000.0,399.0,3.0,3.0,Kerkstraat 20 + 20/1,3941,Eksel,51.1526941,5.391272,,Normal,0,1,,,0,4.0,3.0,1,,1,590.0,,Flanders,Limburg,Genk,22.1,0,,https://immovlan.be/en/detail/residence/for-sale/3941/eksel/rbv74485,False,1376.0
House,residence,330000.0,99.0,3.0,1.0,Quartier de Lohan 1,6980,La Roche En Ardenne,50.1803675,5.6069133,,Excellent,1,1,1.0,Fully equipped,0,4.0,,1,,1,1036.0,D,Wallonia,Luxembourg,Verviers,48.9,0,,https://immovlan.be/en/detail/residence/for-sale/6980/la-roche-en-ardenne/vbe31485,False,3333.0
House,residence,860000.0,240.0,4.0,2.0,Rue du Pont-Levis 52,1200,Sint Lambrechts Woluwe,50.8422316,4.4139711,1960.0,Excellent,0,0,,Super equipped,0,2.0,2.0,1,60.0,1,170.0,D,Brussels,Brussels Capital Region,Bruxelles,4.5,0,,https://immovlan.be/en/detail/residence/for-sale/1200/sint-lambrechts-woluwe/vbe35271,False,3583.0
House,residence,194000.0,180.0,1.0,1.0,RUE PASTUR 49,7160,Chapelle Lez Herlaimont,50.47403,4.28562,,To renovate,0,1,1.0,,0,2.0,,1,,1,,C,Wallonia,Hainaut,La Louvière,6.9,0,,https://immovlan.be/en/detail/residence/for-sale/7160/chapelle-lez-herlaimont/vbd97558,False,1078.0
House,mixed-building,650000.0,800.0,18.0,5.0,,5000,Namur,50.4674593,4.8718068,,To renovate,0,0,,,0,2.0,3.0,0,,0,419.0,,Wallonia,Namur,Namur,0.3,0,,https://immovlan.be/en/detail/mixed-building/for-sale/5000/namur/vbc95048,False,812.0
House,bungalow,85000.0,34.0,2.0,1.0,Val meleye 30 LOT 4 747L pie,6940,Durbuy,50.3747578,5.4687078,,Normal,0,0,,,0,,,1,,0,400.0,,Wallonia,Luxembourg,Liège,29.7,0,,https://immovlan.be/en/detail/bungalow/for-sale/6940/durbuy/vbd83323,False,2500.0
House,villa,795000.0,232.0,3.0,2.0,Dennenbosstraat 32,3850,Binderveld,50.8873844,5.2054144,2017.0,Excellent,1,1,2.0,,0,4.0,,1,,1,1784.0,A,Flanders,Limburg,Sint-Truiden,7.9,0,,https://immovlan.be/en/detail/villa/for-sale/3850/binderveld/rbw10337,False,3427.0
Apartment,apartment,530000.0,127.0,3.0,2.0,Hutsepotstraat 196 0104,9052,Zwijnaarde,51.0089468,3.7019618,2024.0,New,0,1,,Super equipped,1,2.0,,1,,1,,,Flanders,East Flanders,Gent,5.2,0,1.0,https://immovlan.be/en/detail/apartment/for-sale/9052/zwijnaarde/rbu25453,False,4173.0
House,residence,185000.0,188.0,3.0,1.0,Rue Emile Dooms 4,7950,Chievres,50.586636,3.80506368,,To renovate,0,1,1.0,,0,3.0,,0,,0,,E,Wallonia,Hainaut,Mons,18.0,0,,https://immovlan.be/en/detail/residence/for-sale/7950/chievres/vbe36064,False,984.0
Apartment,apartment,199000.0,70.0,2.0,1.0,Voetballersstraat 28,2850,Boom,51.0915149,4.3731727,2005.0,Normal,0,0,,,0,2.0,2.0,0,,1,,B,Flanders,Antwerp,Malines,10.3,0,2.0,https://immovlan.be/en/detail/apartment/for-sale/2850/boom/rbw17367,False,2843.0
House,residence,299000.0,154.0,3.0,1.0,Rue de la Montagne 51,5060,Falisolle,50.4183659,4.6310253,,To renovate,0,1,1.0,Fully equipped,0,4.0,4.0,1,517.0,1,754.0,D,Wallonia,Namur,Charleroi,13.2,0,,https://immovlan.be/en/detail/residence/for-sale/5060/falisolle/vbd92863,False,1942.0
Apartment,apartment,269000.0,72.0,2.0,1.0,Rue Pierre du Diable 29 5,5100,Jambes,50.4438203,4.8639773,1995.0,,0,0,,Fully equipped,1,,,0,,1,,D,Wallonia,Namur,Namur,2.6,0,,https://immovlan.be/en/detail/apartment/for-sale/5100/jambes/vbe35175,False,3736.0
House,residence,1695000.0,490.0,6.0,4.0,,1160,Oudergem,50.817175,4.425082,1910.0,Excellent,0,0,,Super equipped,0,3.0,3.0,1,700.0,1,917.0,D,Brussels,Brussels Capital Region,Bruxelles,6.3,0,,https://immovlan.be/en/detail/residence/for-sale/1160/oudergem/vbe35500,False,3459.0
Apartment,penthouse,125000.0,46.0,1.0,1.0,Larum 58b,2440,Geel,51.1671798,4.9434776,1941.0,To renovate,0,0,,Fully equipped,0,2.0,,0,,0,,E,Flanders,Antwerp,Geel,3.4,0,,https://immovlan.be/en/detail/penthouse/for-sale/2440/geel/rbw25565,False,2717.0
House,residence,209000.0,130.0,3.0,,Waterlozeweg 86,3680,Maaseik,51.0934529,5.6771114,1956.0,,0,0,,,0,4.0,,0,,0,644.0,F,Flanders,Limburg,Genk,18.9,0,,https://immovlan.be/en/detail/residence/for-sale/3680/maaseik/rbw09900,False,1608.0
House,residence,299000.0,130.0,3.0,1.0,Rue Courcelles 10 B,6044,Roux,50.4416806,4.3859076,,Excellent,0,0,,Fully equipped,0,3.0,2.0,1,450.0,1,450.0,D,Wallonia,Hainaut,Charleroi,5.4,0,,https://immovlan.be/en/detail/residence/for-sale/6044/roux/vbe29335,False,2300.0
House,residence,295000.0,198.0,2.0,2.0,Maaldersstraat 60,2060,Antwerp,51.22419,4.423811,1956.0,Normal,0,0,,,0,2.0,,0,,0,72.0,C,Flanders,Antwerp,Antwerpen,1.6,0,,https://immovlan.be/en/detail/residence/for-sale/2060/antwerp/rbv93037,False,1490.0
House,residence,699000.0,264.0,4.0,1.0,Aardeweg 31,9406,Outer,50.8331061,3.9978359,1977.0,Excellent,0,1,1.0,,0,4.0,,1,,1,3472.0,D,Flanders,East Flanders,Alost,12.0,0,,https://immovlan.be/en/detail/residence/for-sale/9406/outer/rbu73236,False,2648.0
House,residence,175000.0,164.0,4.0,1.0,Hallertaulaan 11,8970,Poperinge,50.8469959,2.7359418,1971.0,To renovate,0,1,1.0,,0,2.0,,1,,0,278.0,E,Flanders,West Flanders,Roeselare,29.2,0,,https://immovlan.be/en/detail/residence/for-sale/8970/poperinge/rbw17384,False,1067.0
Apartment,apartment,290000.0,77.0,1.0,1.0,Sint-Jobsstraat 3,2200,Herentals,51.17877595,4.84112144,2025.0,New,0,0,,,1,4.0,3.0,0,,1,,,Flanders,Antwerp,Geel,10.6,0,,https://immovlan.be/en/detail/apartment/for-sale/2200/herentals/rbw24884,False,3766.0
Apartment,apartment,185000.0,,2.0,1.0,Rue du Centre 64 34,5590,Ciney,50.29680143,5.10202836,,,0,0,,,1,,,0,,1,,C,Wallonia,Namur,Namur,25.2,0,3.0,https://immovlan.be/en/detail/apartment/for-sale/5590/ciney/vbe17898,False,
House,residence,199500.0,90.0,3.0,1.0,Allée du Rivage 2,4540,Amay,50.5460515,5.330051,1966.0,To renovate,0,1,1.0,,0,3.0,,1,,1,630.0,D,Wallonia,Liège,Liège,20.1,0,,https://immovlan.be/en/detail/residence/for-sale/4540/amay/vbe24801,False,2217.0
House,residence,75000.0,90.0,1.0,1.0,,7730,Estaimbourg,50.6803312,3.3098471,,To renovate,0,0,,Partially equipped,0,4.0,,1,,1,731.0,G,Wallonia,Hainaut,Mouscron,9.8,0,,https://immovlan.be/en/detail/residence/for-sale/7730/estaimbourg/vbe28844,False,833.0
House,residence,420000.0,150.0,5.0,,Alter Malmedyer Weg 13,4700,Eupen,50.61792,6.03719,1974.0,,0,1,,,0,,,1,325.0,0,,,Wallonia,Liège,Verviers,12.7,0,,https://immovlan.be/en/detail/residence/for-sale/4700/eupen/vbe15312,False,2800.0
House,residence,420000.0,230.0,5.0,3.0,Rue de la Sucrerie 1,4280,Hannut,50.6868976,5.1245075,1899.0,To renovate,0,1,1.0,,0,4.0,2.0,1,265.0,0,610.0,E,Wallonia,Liège,Sint-Truiden,15.2,0,,https://immovlan.be/en/detail/residence/for-sale/4280/hannut/vbc61851,False,1826.0
House,residence,449000.0,142.0,3.0,1.0,Pavillonchamps 29A,4920,Aywaille,50.444091,5.6757997,2011.0,Excellent,0,1,1.0,Super equipped,0,4.0,3.0,1,,1,1186.0,B,Wallonia,Liège,Verviers,20.9,0,,https://immovlan.be/en/detail/residence/for-sale/4920/aywaille/vbe32163,False,3162.0
Apartment,apartment,429000.0,190.0,3.0,1.0,Rembrandtstraat 12 2,2018,Antwerp,51.20971,4.413988,,Excellent,0,0,,,0,2.0,3.0,0,,1,,D,Flanders,Antwerp,Antwerpen,1.3,0,2.0,https://immovlan.be/en/detail/apartment/for-sale/2018/antwerp/rbv93004,False,2258.0
House,residence,399000.0,148.0,3.0,1.0,Kerkstraat 15 C,9890,Dikkelvenne,50.917199,3.6924977,2025.0,New,0,0,,,0,4.0,1.0,1,63.0,1,,,Flanders,East Flanders,Gent,15.3,0,,https://immovlan.be/en/detail/residence/for-sale/9890/dikkelvenne/rbw18230,False,2696.0
House,residence,677921.0,237.0,4.0,2.0,,5100,Wierde,50.4260307,4.9509671,,New,0,1,2.0,,0,4.0,,1,,0,1600.0,A+,Wallonia,Namur,Namur,7.5,0,,https://immovlan.be/en/detail/residence/for-sale/5100/wierde/vbe09232,False,2860.0
Apartment,duplex,369000.0,130.0,2.0,1.0,Blauwhondstraat 7 03.01,2800,Mechelen,51.02697,4.479692,1983.0,Normal,0,0,,,0,2.0,,0,,1,,C,Flanders,Antwerp,Malines,0.2,0,3.0,https://immovlan.be/en/detail/duplex/for-sale/2800/mechelen/rbw24798,False,2838.0
House,villa,525000.0,175.0,4.0,1.0,,7180,Seneffe,50.5285674,4.2721491,1998.0,Normal,0,1,1.0,,0,4.0,1.0,1,,1,1393.0,C,Wallonia,Hainaut,La Louvière,8.0,0,,https://immovlan.be/en/detail/villa/for-sale/7180/seneffe/vbe30800,False,3000.0
House,residence,695000.0,285.0,5.0,3.0,Chaussée de Forest 143,1060,Sint Gillis,50.8283705,4.3393771,1914.0,Normal,1,0,,Super equipped,0,2.0,6.0,0,,1,110.0,C,Brussels,Brussels Capital Region,Bruxelles,2.6,0,,https://immovlan.be/en/detail/residence/for-sale/1060/sint-gillis/vbe35387,False,2439.0
House,residence,115000.0,65.0,2.0,1.0,,5530,Yvoir,50.3204142,4.912835,,To renovate,0,0,,,0,4.0,,1,160.0,0,225.0,G,Wallonia,Namur,Namur,16.6,0,,https://immovlan.be/en/detail/residence/for-sale/5530/yvoir/vbe29888,False,1769.0
House,villa,530000.0,250.0,4.0,1.0,Rue des Ecoles 21,7080,Frameries,50.3693903,3.8816846,2006.0,Excellent,0,1,2.0,Fully equipped,0,4.0,,1,1720.0,1,1900.0,C,Wallonia,Hainaut,Mons,10.7,0,,https://immovlan.be/en/detail/villa/for-sale/7080/frameries/vbe15807,False,2120.0
House,residence,185000.0,152.0,4.0,1.0,Zandstraat 33,9420,Erpe Mere,50.9425713,3.9570497,1850.0,To renovate,0,0,,,0,2.0,,1,756.0,1,925.0,F,Flanders,East Flanders,Alost,5.8,0,,https://immovlan.be/en/detail/residence/for-sale/9420/erpe-mere/rbw16922,False,1217.0
Apartment,apartment,173550.0,63.0,1.0,1.0,Route de Durbuy  E0.2,6940,Barvaux Sur Ourthe,50.3475,5.478466,2023.0,,0,1,1.0,,0,,2.0,0,,1,,,Wallonia,Luxembourg,Liège,32.5,0,,https://immovlan.be/en/detail/apartment/for-sale/6940/barvaux-sur-ourthe/vbc33290,False,2755.0
House,residence,649000.0,311.0,5.0,1.0,Rue du Stockay 2,6997,Amonines,50.3211716,5.5732228,,,0,0,,,0,4.0,,1,,1,851.0,C,Wallonia,Luxembourg,Liège,34.6,0,,https://immovlan.be/en/detail/residence/for-sale/6997/amonines/vbe10112,False,2087.0
Apartment,apartment,320000.0,172.0,2.0,1.0,Route de Houffalize 2,6980,La Roche En Ardenne,50.175394,5.5911111,,New,0,0,,,0,4.0,,1,,1,,,Wallonia,Luxembourg,Verviers,49.9,0,,https://immovlan.be/en/detail/apartment/for-sale/6980/la-roche-en-ardenne/vbd31740,False,1860.0
House,residence,225000.0,208.0,3.0,,,7080,Noirchain,50.40176,3.93218,,,0,0,,,0,2.0,,1,,1,180.0,C,Wallonia,Hainaut,Mons,6.0,0,,https://immovlan.be/en/detail/residence/for-sale/7080/noirchain/vbe33505,False,1082.0
House,residence,149000.0,104.0,2.0,1.0,,7700,Luingne,50.738441,3.2337149,1930.0,To renovate,0,0,,Partially equipped,0,2.0,,1,106.0,1,195.0,E,Wallonia,Hainaut,Mouscron,1.6,0,,https://immovlan.be/en/detail/residence/for-sale/7700/luingne/vbd76647,False,1433.0
House,residence,319000.0,144.0,3.0,1.0,Rue du Wez 33 C,6640,Vaux Sur Sure,49.90937498,5.56643101,2026.0,New,0,0,,,0,3.0,1.0,1,,0,840.0,A,Wallonia,Luxembourg,Arlon,30.9,0,,https://immovlan.be/en/detail/residence/for-sale/6640/vaux-sur-sure/vbe09298,False,2215.0
Apartment,apartment,532500.0,149.0,3.0,3.0,Rue Sainte Marie 021 0041,4000,Liege,50.6321706,5.5654603,2026.0,,0,0,,Fully equipped,1,3.0,,0,,1,,A+,Wallonia,Liège,Liège,1.0,0,4.0,https://immovlan.be/en/detail/apartment/for-sale/4000/liege/vbe08850,False,3574.0
Apartment,apartment,599000.0,169.0,3.0,2.0,Martelaarslaan 296,9000,Gent,51.0476138,3.710585,1985.0,Fully renovated,1,1,1.0,Super equipped,1,2.0,6.0,0,,1,,B,Flanders,East Flanders,Gent,0.9,0,3.0,https://immovlan.be/en/detail/apartment/for-sale/9000/gent/rbw02197,False,3544.0
House,residence,199000.0,146.0,3.0,1.0,Gentsesteenweg 25,9240,Zele,51.0630293,4.0239792,1899.0,To renovate,0,1,1.0,,0,2.0,,1,,0,274.0,F,Flanders,East Flanders,Lokeren,5.2,0,,https://immovlan.be/en/detail/residence/for-sale/9240/zele/rbv71218,False,1363.0
Apartment,duplex,1180000.0,216.0,2.0,2.0,,1050,Elsene,50.8235717,4.3766927,1918.0,Excellent,0,1,1.0,Super equipped,0,,3.0,0,,1,,D,Brussels,Brussels Capital Region,Bruxelles,3.5,0,,https://immovlan.be/en/detail/duplex/for-sale/1050/elsene/vbe35134,False,5463.0
House,residence,400000.0,130.0,4.0,1.0,,6900,Marche En Famenne,50.2282896,5.3441606,1986.0,Normal,0,1,1.0,,0,4.0,1.0,1,800.0,1,1074.0,A+,Wallonia,Luxembourg,Namur,43.0,0,,https://immovlan.be/en/detail/residence/for-sale/6900/marche-en-famenne/vbe36345,False,3077.0
Apartment,apartment,285000.0,106.0,2.0,1.0,,3630,Maasmechelen,50.969278,5.6619185,,,0,0,,,0,,,0,,1,,,Flanders,Limburg,Genk,11.4,0,1.0,https://immovlan.be/en/detail/apartment/for-sale/3630/maasmechelen/rbm83286,False,2689.0
Apartment,apartment,895000.0,,3.0,2.0,Lippenslaan 257 6.1,8300,Knokke,51.3487423,3.2883842,1996.0,,0,1,,,1,,6.0,0,,1,,B,Flanders,West Flanders,Knokke-Heist,0.4,1,6.0,https://immovlan.be/en/detail/apartment/for-sale/8300/knokke/rbv62774,False,
House,residence,179000.0,105.0,3.0,1.0,Appeldonkstraat 165,2830,Willebroek,51.06998,4.354513,1930.0,To renovate,0,0,,,0,2.0,,1,,0,188.0,C,Flanders,Antwerp,Malines,9.9,0,,https://immovlan.be/en/detail/residence/for-sale/2830/willebroek/rbu87998,False,1705.0
House,residence,139000.0,97.0,2.0,1.0,,7700,Mouscron,50.7459126,3.219272,,,0,0,,,0,2.0,,0,,0,50.0,D,Wallonia,Hainaut,Mouscron,0.5,0,,https://immovlan.be/en/detail/residence/for-sale/7700/mouscron/vbe33258,False,1433.0
House,residence,160000.0,253.0,3.0,1.0,Rue des Purnalîs 23,5590,Ciney,50.2775084,5.0691768,1918.0,To renovate,0,1,1.0,Partially equipped,0,2.0,2.0,0,,1,249.0,G,Wallonia,Namur,Namur,25.5,0,,https://immovlan.be/en/detail/residence/for-sale/5590/ciney/vbe17819,False,632.0
Apartment,apartment,199000.0,80.0,2.0,1.0,Campiniastraat 78 1V,2170,Merksem,51.2398472,4.43241231,,To renovate,0,1,1.0,,0,2.0,,0,,1,,D,Flanders,Antwerp,Antwerpen,3.1,0,1.0,https://immovlan.be/en/detail/apartment/for-sale/2170/merksem/rbw18186,False,2488.0
House,residence,449000.0,185.0,6.0,1.0,Rue Arthur Defoin 77,5500,Dinant,50.24561,4.92103,,To renovate,0,0,,,0,,,1,394.0,1,,C,Wallonia,Namur,Namur,24.9,0,,https://immovlan.be/en/detail/residence/for-sale/5500/dinant/vbe35227,False,2427.0
House,residence,172500.0,,2.0,1.0,Kiezelweg 17 - 591,2400,Mol,51.211041,5.1716104,,,0,0,,,0,,,0,,1,,,Flanders,Antwerp,Geel,13.6,0,,https://immovlan.be/en/detail/residence/for-sale/2400/mol/rbv09593,False,
House,mixed-building,920000.0,,,,,2200,Herentals,51.1768541,4.8355946,,,0,0,,,0,2.0,,1,,1,,,Flanders,Antwerp,Geel,11.0,0,,https://immovlan.be/en/detail/mixed-building/for-sale/2200/herentals/vbd70030,False,
House,residence,499000.0,183.0,3.0,2.0,Heksenheide 10,3500,Hasselt,50.95570835,5.31964745,2004.0,Normal,0,0,,,0,3.0,,0,,0,335.0,B,Flanders,Limburg,Hasselt,2.9,0,,https://immovlan.be/en/detail/residence/for-sale/3500/hasselt/rbw17438,False,2727.0
House,villa,445000.0,430.0,4.0,2.0,rue des Haies 26,6250,Presles,50.3855335,4.5703165,1997.0,Normal,0,1,,Super equipped,0,4.0,,1,1800.0,1,2400.0,C,Wallonia,Hainaut,Charleroi,9.3,0,,https://immovlan.be/en/detail/villa/for-sale/6250/presles/vwd17620,False,1035.0
House,villa,979000.0,330.0,4.0,2.0,,7700,Mouscron,50.7459126,3.219272,,Normal,0,1,1.0,,0,,1.0,1,,1,2737.0,B,Wallonia,Hainaut,Mouscron,0.5,0,,https://immovlan.be/en/detail/villa/for-sale/7700/mouscron/vbb92799,False,2967.0
House,mixed-building,175000.0,185.0,,,Chaussée de Nivelles 30,5140,Sombreffe,50.52507,4.60994,,To renovate,0,1,1.0,,0,2.0,,1,201.0,1,201.0,,Wallonia,Namur,Charleroi,17.3,0,,https://immovlan.be/en/detail/mixed-building/for-sale/5140/sombreffe/vbe36450,False,946.0
House,residence,110000.0,80.0,3.0,1.0,Route d'Houffalize 13 A,6660,Houffalize,50.1811501,5.6710848,,To renovate,0,0,,,0,,,1,,0,200.0,E,Wallonia,Luxembourg,Verviers,47.4,0,,https://immovlan.be/en/detail/residence/for-sale/6660/houffalize/vbe31269,False,1375.0
House,residence,220000.0,,4.0,1.0,,7740,Warcoing,50.7043825,3.3439836,,To renovate,0,0,,,0,3.0,2.0,0,,0,890.0,E,Wallonia,Hainaut,Mouscron,10.2,0,,https://immovlan.be/en/detail/residence/for-sale/7740/warcoing/vbe36434,False,
Apartment,apartment,207000.0,65.0,1.0,1.0,Dessauerplein 1,2300,Turnhout,51.32402,4.953304,2024.0,New,0,0,,,1,3.0,4.0,0,,1,,,Flanders,Antwerp,Turnhout,0.6000000000000001,0,2.0,https://immovlan.be/en/detail/apartment/for-sale/2300/turnhout/rbw24085,False,3185.0
Apartment,apartment,378000.0,105.0,2.0,1.0,Basculestraat 38,8900,Ieper,50.85128,2.8841900000000003,2024.0,New,0,1,,,1,2.0,3.0,0,,1,,,Flanders,West Flanders,Roeselare,19.7,0,1.0,https://immovlan.be/en/detail/apartment/for-sale/8900/ieper/rbu75682,False,3600.0
House,villa,695000.0,328.0,4.0,2.0,Begonialaan 43,8531,Hulste,50.8862682,3.2906963,2003.0,Excellent,0,1,1.0,Fully equipped,0,4.0,,1,,1,872.0,B,Flanders,West Flanders,Kortrijk,6.7,0,,https://immovlan.be/en/detail/villa/for-sale/8531/hulste/rbw10640,False,2119.0
House,residence,480000.0,242.0,3.0,1.0,Endepoelstraat 40,3540,Herk De Stad,50.9278263,5.1687448,1990.0,,0,1,1.0,,0,4.0,,0,,1,1311.0,B,Flanders,Limburg,Hasselt,11.5,0,,https://immovlan.be/en/detail/residence/for-sale/3540/herk-de-stad/rbw25580,False,1983.0
House,residence,298000.0,120.0,3.0,1.0,Louis Pasteurlaan 10,8500,Kortrijk,50.810255,3.30141,1974.0,Excellent,0,1,1.0,,0,3.0,,1,,1,230.0,C,Flanders,West Flanders,Kortrijk,3.2,0,,https://immovlan.be/en/detail/residence/for-sale/8500/kortrijk/rbw17494,False,2483.0
Apartment,apartment,202000.0,56.0,1.0,1.0,Dessauerplein 1,2300,Turnhout,51.32402,4.953304,2024.0,New,0,0,,,1,3.0,4.0,0,,1,,,Flanders,Antwerp,Turnhout,0.6000000000000001,0,3.0,https://immovlan.be/en/detail/apartment/for-sale/2300/turnhout/rbw24092,False,3607.0
Apartment,apartment,229000.0,86.0,2.0,1.0,Avenue Laënnec 15,1020,Laken,50.891735,4.3331355,1958.0,Normal,0,0,,Fully equipped,1,2.0,5.0,0,,0,,F,Brussels,Brussels Capital Region,Bruxelles,4.8,0,5.0,https://immovlan.be/en/detail/apartment/for-sale/1020/laken/vbe33090,False,2663.0
House,cottage,62000.0,42.0,2.0,1.0,Les-Etoiles 19,5542,Blaimont,50.18794,4.83151,,Excellent,1,0,,,0,,,1,271.0,1,,G,Wallonia,Namur,Namur,31.1,0,,https://immovlan.be/en/detail/cottage/for-sale/5542/blaimont/vbd19933,False,1476.0
Apartment,duplex,159000.0,106.0,1.0,1.0,En Mi-Ville 52,4800,Verviers,50.5807494,5.8409597,1850.0,Normal,0,0,,Fully equipped,0,2.0,1.0,0,,1,,C,Wallonia,Liège,Verviers,1.8,0,0.0,https://immovlan.be/en/detail/duplex/for-sale/4800/verviers/vbe23045,False,1500.0
Apartment,apartment,269000.0,82.0,2.0,1.0,Kunstenstraat 1 1.2,8930,Menen,50.7974097,3.1159732,2021.0,Normal,0,1,1.0,Super equipped,1,2.0,4.0,0,,1,,A,Flanders,West Flanders,Mouscron,9.1,0,1.0,https://immovlan.be/en/detail/apartment/for-sale/8930/menen/rbw25422,False,3280.0
Apartment,apartment,138000.0,35.0,1.0,1.0,Place de la Gare 4 6,6900,Aye,50.2023536,5.3143071,,New,0,0,,Fully equipped,0,2.0,,0,,0,,A,Wallonia,Luxembourg,Namur,43.3,0,2.0,https://immovlan.be/en/detail/apartment/for-sale/6900/aye/vbd59338,False,3943.0
Apartment,apartment,190000.0,,1.0,1.0,Nieuwpoortlaan 142,8660,De Panne,51.1050631,2.5990857,1936.0,Fully renovated,0,0,,,0,,4.0,0,,0,,C,Flanders,West Flanders,De Panne,0.8,1,2.0,https://immovlan.be/en/detail/apartment/for-sale/8660/de-panne/rbv73748,False,
House,villa,199000.0,125.0,2.0,1.0,Rue du Coucou 28,6040,Jumet,50.430546,4.4224485,,Normal,0,1,1.0,,0,3.0,,1,,0,340.0,E,Wallonia,Hainaut,Charleroi,2.7,0,,https://immovlan.be/en/detail/villa/for-sale/6040/jumet/vbe27099,False,1592.0
Apartment,apartment,292000.0,109.0,3.0,1.0,Steenbergen 10,2430,Laakdal,51.08144,5.018847,2024.0,New,0,0,,,1,4.0,3.0,0,,1,,,Flanders,Antwerp,Geel,9.4,0,,https://immovlan.be/en/detail/apartment/for-sale/2430/laakdal/rbw18549,False,2679.0
House,residence,169000.0,165.0,4.0,1.0,,7500,Tournai,50.6056059,3.3880367,,To renovate,0,0,,,0,2.0,,1,170.0,1,300.0,E,Wallonia,Hainaut,Tournai,0.1,0,,https://immovlan.be/en/detail/residence/for-sale/7500/tournai/vbe34759,False,1024.0
Apartment,apartment,219000.0,75.0,1.0,1.0,Haverweg 9 C,2560,Nijlen,51.1383869,4.6199393,2001.0,Normal,0,1,1.0,,0,3.0,2.0,1,107.0,0,,C,Flanders,Antwerp,Malines,16.0,0,2.0,https://immovlan.be/en/detail/apartment/for-sale/2560/nijlen/rbw25503,False,2920.0
Apartment,duplex,275000.0,137.0,3.0,1.0,Leopoldsburgsesteenweg 89 1,3971,Heppen,51.1125524,5.2385832,2010.0,,0,0,,,0,,,0,,1,,B,Flanders,Limburg,Geel,18.2,0,,https://immovlan.be/en/detail/duplex/for-sale/3971/heppen/rbw11743,False,2007.0
Apartment,apartment,199000.0,77.0,2.0,2.0,,1082,Berchem Sainte Agathe,50.865341,4.295748,,Excellent,0,0,,Fully equipped,0,2.0,2.0,0,,0,,G,Brussels,Brussels Capital Region,Bruxelles,4.3,0,2.0,https://immovlan.be/en/detail/apartment/for-sale/1082/berchem-sainte-agathe/vbe31021,False,2584.0
Apartment,apartment,169000.0,90.0,2.0,1.0,Lange Kongostraat 43,2060,Antwerp,51.2231606,4.439898,1973.0,,0,0,,,1,2.0,5.0,0,,1,,C,Flanders,Antwerp,Antwerpen,2.6,0,5.0,https://immovlan.be/en/detail/apartment/for-sale/2060/antwerp/rbw12167,False,1878.0
House,residence,239900.0,125.0,2.0,1.0,Ambiorixstraat 110,3700,Berg,50.7891913,5.4785006,1964.0,To renovate,0,1,2.0,,0,3.0,,1,,0,645.0,E,Flanders,Limburg,Maastricht,16.5,0,,https://immovlan.be/en/detail/residence/for-sale/3700/berg/rbw20252,False,1919.0
Apartment,apartment,219000.0,90.0,2.0,1.0,Lode Zielenslaan 14 V2,2160,Wommelgem,51.2142276,4.4926025,,,0,1,1.0,,0,,,0,,0,,C,Flanders,Antwerp,Antwerpen,6.3,0,,https://immovlan.be/en/detail/apartment/for-sale/2160/wommelgem/rbw08993,False,2433.0
Apartment,apartment,395000.0,121.0,2.0,2.0,Kattenstraat 45 5,8800,Roeselare,50.9475279,3.1191735,2008.0,Excellent,0,1,1.0,,1,2.0,5.0,1,,1,,C,Flanders,West Flanders,Roeselare,0.3,0,0.0,https://immovlan.be/en/detail/apartment/for-sale/8800/roeselare/rbv49093,False,3264.0
House,residence,675000.0,290.0,6.0,3.0,Rue de Lantigné 42,6940,Durbuy,50.3385555,5.4435938,1994.0,Normal,0,1,1.0,Fully equipped,0,4.0,1.0,1,,1,3215.0,D,Wallonia,Luxembourg,Liège,34.1,0,,https://immovlan.be/en/detail/residence/for-sale/6940/durbuy/vbe19351,False,2328.0
House,residence,129000.0,80.0,2.0,,,7120,Estinnes,50.3833333,4.0833333,,,0,0,,,0,,,1,,0,,F,Wallonia,Hainaut,Mons,12.2,0,,https://immovlan.be/en/detail/residence/for-sale/7120/estinnes/vbd45910,False,1612.0
Apartment,apartment,820000.0,,2.0,1.0,Zeedijk 22 801,8620,Nieuwpoort,51.1492426,2.7169466,1972.0,Excellent,0,0,,,1,,9.0,0,,1,,B,Flanders,West Flanders,Ostende,16.5,0,8.0,https://immovlan.be/en/detail/apartment/for-sale/8620/nieuwpoort/rbv95150,False,
House,residence,1590000.0,533.0,5.0,3.0,,8957,Mesen,50.7638555,2.8976699,,,0,0,,,0,4.0,,1,,1,15750.0,C,Flanders,West Flanders,Lille,18.5,0,,https://immovlan.be/en/detail/residence/for-sale/8957/mesen/vbe14734,False,2983.0
House,residence,830000.0,424.0,7.0,3.0,Rue de Naneux 3,6670,Gouvy,50.1901517,5.9470994,1971.0,Normal,0,1,3.0,,0,,,1,111.0,0,14683.0,C,Wallonia,Luxembourg,Verviers,44.8,0,,https://immovlan.be/en/detail/residence/for-sale/6670/gouvy/vbe35002,False,1958.0
House,residence,554000.0,159.0,3.0,2.0,Tennisstraat,9050,Gentbrugge,51.0308552,3.7674868,,New,0,0,,Super equipped,1,2.0,2.0,1,,1,169.0,,Flanders,East Flanders,Gent,4.4,0,,https://immovlan.be/en/detail/residence/for-sale/9050/gentbrugge/rbw13300,False,3484.0
House,residence,1795000.0,700.0,5.0,5.0,,7850,Enghien,50.6947227,4.0418874,2006.0,Excellent,0,1,1.0,Super equipped,0,4.0,2.0,1,2200.0,1,4731.0,B,Wallonia,Hainaut,La Louvière,26.1,0,,https://immovlan.be/en/detail/residence/for-sale/7850/enghien/vbe36286,False,2564.0
Apartment,apartment,235000.0,93.0,2.0,1.0,Moeskroenstraat 447 001,8930,Rekkem,50.7849727,3.1624143,2025.0,New,0,0,,Fully equipped,1,,,1,,1,,A,Flanders,West Flanders,Mouscron,5.8,0,0.0,https://immovlan.be/en/detail/apartment/for-sale/8930/rekkem/vbe34780,False,2527.0
House,residence,179500.0,160.0,3.0,2.0,Rue de la Fortune 12,4500,Huy,50.517394,5.239938,,To renovate,0,0,,Fully equipped,0,2.0,2.0,0,,1,66.0,D,Wallonia,Liège,Namur,26.9,0,,https://immovlan.be/en/detail/residence/for-sale/4500/huy/vbe25102,False,1122.0
House,residence,430000.0,224.0,3.0,1.0,Rue de Scoumont 46,6230,Obaix,50.54393,4.31097,,,0,1,1.0,,0,4.0,,1,350.0,1,739.0,E,Wallonia,Hainaut,La Louvière,11.2,0,,https://immovlan.be/en/detail/residence/for-sale/6230/obaix/vbe15643,False,1920.0
House,residence,169000.0,180.0,3.0,1.0,Le Quartier du Furgy 39,6887,Herbeumont,49.821809,5.3251518,1875.0,Normal,0,1,1.0,Partially equipped,0,3.0,1.0,1,57.0,1,346.0,F,Wallonia,Luxembourg,Arlon,38.5,0,,https://immovlan.be/en/detail/residence/for-sale/6887/herbeumont/vbd71170,False,939.0
Apartment,apartment,198000.0,61.0,1.0,1.0,NEGENDE LINIELAAN 37 511,1000,Brussels,50.85698,4.345417,2013.0,Normal,1,1,1.0,,1,2.0,7.0,0,,1,,D,Brussels,Brussels Capital Region,Bruxelles,0.9,0,5.0,https://immovlan.be/en/detail/apartment/for-sale/1000/brussels/rbv88146,False,3246.0
House,residence,340000.0,145.0,4.0,1.0,Hautes Voies,6940,Durbuy,50.3302902,5.4357028,2025.0,New,0,1,,,0,4.0,2.0,1,,1,559.0,A,Wallonia,Luxembourg,Liège,35.1,0,,https://immovlan.be/en/detail/residence/for-sale/6940/durbuy/vbe06537,False,2345.0
Apartment,apartment,175000.0,67.0,1.0,1.0,Rue Josse de Boeck 14,1090,Jette,50.874902,4.3384109,1939.0,To renovate,0,0,,Partially equipped,0,2.0,3.0,1,,1,,D,Brussels,Brussels Capital Region,Bruxelles,2.9,0,2.0,https://immovlan.be/en/detail/apartment/for-sale/1090/jette/vbe19001,False,2612.0
House,residence,270000.0,399.0,4.0,1.0,Grand'Rue 53,7140,Morlanwelz Mariemont,50.4555788,4.2456208,,Normal,0,1,1.0,,0,2.0,,1,,1,560.0,F,Wallonia,Hainaut,La Louvière,4.8,0,,https://immovlan.be/en/detail/residence/for-sale/7140/morlanwelz-mariemont/rbv95142,False,677.0
House,bungalow,59500.0,74.0,2.0,,Rue d'Andenne 20/79 79,6940,Durbuy,50.34316368,5.42765718,1974.0,,1,0,,,0,4.0,,0,,1,,,Wallonia,Luxembourg,Liège,33.9,0,,https://immovlan.be/en/detail/bungalow/for-sale/6940/durbuy/vba54991,False,804.0
House,residence,53500.0,42.0,3.0,1.0,Gijzenveldstraat 75 - 404,3690,Zutendaal,50.9152535,5.5990338,2008.0,,0,0,,,0,,,0,,0,217.0,,Flanders,Limburg,Genk,9.0,0,,https://immovlan.be/en/detail/residence/for-sale/3690/zutendaal/rbu06277,False,1274.0
House,residence,331000.0,,3.0,1.0,Willem Ii-Straat 43B,3900,Pelt,51.2062216,5.4169043,,New,0,0,,,0,2.0,,1,,0,159.0,,Flanders,Limburg,Eindhoven,26.4,0,,https://immovlan.be/en/detail/residence/for-sale/3900/pelt/rbu61956,False,
House,residence,99000.0,72.0,2.0,,Rue Jules Destrée 95,6150,Anderlues,50.4204349,4.263048,,To renovate,0,1,1.0,,0,2.0,2.0,1,369.0,0,449.0,C,Wallonia,Hainaut,La Louvière,8.4,0,,https://immovlan.be/en/detail/residence/for-sale/6150/anderlues/vbe36108,False,1375.0
Apartment,apartment,381000.0,,,,Chauss?e de Waterloo 851,1180,Ukkel,50.81146,4.3536,,New,0,0,,,0,2.0,,0,,0,,,Brussels,Brussels Capital Region,Uccle,1.6,1,4.0,https://immovlan.be/en/detail/apartment/for-sale/1180/ukkel/rbw17392,False,
House,residence,2750000.0,650.0,5.0,5.0,,2820,Bonheiden,51.0166667,4.55,,Excellent,0,1,1.0,Super equipped,1,4.0,,1,,1,16593.0,C,Flanders,Antwerp,Malines,5.2,0,,https://immovlan.be/en/detail/residence/for-sale/2820/bonheiden/rbv95699,False,4231.0
House,residence,519000.0,259.0,4.0,1.0,Wijnzilver 22,9920,Lovendegem,51.1033519,3.6171044,1982.0,Excellent,0,1,1.0,,0,4.0,,1,,1,474.0,B,Flanders,East Flanders,Gent,8.9,0,,https://immovlan.be/en/detail/residence/for-sale/9920/lovendegem/rbv96733,False,2004.0
House,residence,415000.0,,3.0,1.0,Kempische Steenweg 509,3500,Hasselt,50.9668819,5.3582608,1962.0,Fully renovated,0,1,1.0,Super equipped,0,3.0,3.0,1,,1,1048.0,C,Flanders,Limburg,Hasselt,4.4,0,,https://immovlan.be/en/detail/residence/for-sale/3500/hasselt/rbu42246,False,
House,residence,569000.0,304.0,8.0,8.0,,7503,Froyennes,50.6229047,3.3471214,2000.0,Fully renovated,0,0,,,0,,1.0,0,,1,,G,Wallonia,Hainaut,Tournai,3.5,0,,https://immovlan.be/en/detail/residence/for-sale/7503/froyennes/vbe32934,False,1872.0
House,residence,436000.0,174.0,3.0,,Bosveld 12 B,9300,Aalst,50.95536186,4.05800206,,New,0,0,,,0,3.0,,1,,1,182.0,A,Flanders,East Flanders,Alost,2.3,0,,https://immovlan.be/en/detail/residence/for-sale/9300/aalst/rbi58327,False,2506.0
House,residence,95000.0,133.0,2.0,1.0,Rue des Roses 9,6850,Paliseul,49.9598084,5.1258219,,To renovate,0,0,,,0,,,0,,0,97.0,E,Wallonia,Luxembourg,Arlon,58.3,0,,https://immovlan.be/en/detail/residence/for-sale/6850/paliseul/vbe31259,False,714.0
House,residence,494002.0,233.0,4.0,2.0,,7972,Aubechies,50.5724436,3.6814062,,New,0,1,2.0,,0,4.0,,1,,0,1137.0,A+,Wallonia,Hainaut,Tournai,21.0,0,,https://immovlan.be/en/detail/residence/for-sale/7972/aubechies/vbe00647,False,2120.0
Apartment,apartment,27500.0,66.0,1.0,,Quai Saint Léonard 9 / 111,4000,Glain,50.6475942,5.5872425,,,0,0,,,0,2.0,,0,,1,,B,Wallonia,Liège,Liège,1.8,0,11.0,https://immovlan.be/en/detail/apartment/for-sale/4000/glain/vbd57412,False,417.0
House,residence,250000.0,187.0,4.0,1.0,Kogelstraat 19,3590,Diepenbeek,50.9089381,5.4216355,1953.0,,0,0,,,0,3.0,,1,,1,382.0,F,Flanders,Limburg,Hasselt,6.7,0,,https://immovlan.be/en/detail/residence/for-sale/3590/diepenbeek/rbv94903,False,1337.0
House,residence,195000.0,150.0,3.0,1.0,,8930,Rekkem,50.782807,3.1641132,1930.0,Normal,0,0,,,0,2.0,2.0,1,50.0,1,155.0,D,Flanders,West Flanders,Mouscron,5.6,0,,https://immovlan.be/en/detail/residence/for-sale/8930/rekkem/vbe34085,False,1300.0
House,residence,495000.0,160.0,4.0,1.0,Rue de Plate 21,6747,Saint Leger,49.6136735,5.7203934,,To renovate,0,1,1.0,Fully equipped,0,4.0,2.0,1,,1,1306.0,D,Wallonia,Luxembourg,Arlon,10.4,0,,https://immovlan.be/en/detail/residence/for-sale/6747/saint-leger/vbe23843,False,3094.0
Apartment,apartment,219000.0,63.0,1.0,1.0,Rue de la Brasserie 15 4,7500,Tournai,50.5921028,3.4269429,,,0,1,1.0,,0,,1.0,0,,0,,A,Wallonia,Hainaut,Tournai,3.1,0,1.0,https://immovlan.be/en/detail/apartment/for-sale/7500/tournai/vbe36555,False,3476.0
Apartment,apartment,199000.0,80.0,2.0,1.0,Rubensstraat 3 8,2300,Turnhout,51.31891,4.945468,1969.0,Normal,0,0,,,1,3.0,3.0,0,,0,,E,Flanders,Antwerp,Turnhout,0.4,0,3.0,https://immovlan.be/en/detail/apartment/for-sale/2300/turnhout/rbw11722,False,2488.0
Apartment,apartment,230000.0,221.0,3.0,1.0,Rue Grande 68 2,6687,Bertogne,50.0853765,5.67035,,Normal,0,0,,,0,,2.0,0,,0,,B,Wallonia,Luxembourg,Arlon,45.9,0,2.0,https://immovlan.be/en/detail/apartment/for-sale/6687/bertogne/vbe31257,False,1041.0
House,residence,560000.0,309.0,5.0,2.0,Bihay 33,6940,Durbuy,50.34929245,5.57018062,,,0,0,,,0,4.0,,1,1078.0,1,1218.0,D,Wallonia,Luxembourg,Liège,31.5,0,,https://immovlan.be/en/detail/residence/for-sale/6940/durbuy/vbe00369,False,1812.0
House,residence,290000.0,281.0,6.0,1.0,route d'Houffalize 13,6660,Nadrin,50.1811501,5.6710848,,To renovate,0,1,1.0,,0,,,1,,0,1480.0,D,Wallonia,Luxembourg,Verviers,47.4,0,,https://immovlan.be/en/detail/residence/for-sale/6660/nadrin/vbe28557,False,1032.0
Apartment,apartment,169000.0,40.0,2.0,,Lalouxlaan 1 03.05,8670,Koksijde,51.1169148,2.6371974,1935.0,Excellent,1,0,,,1,2.0,3.0,1,,0,,C,Flanders,West Flanders,De Panne,3.7,1,3.0,https://immovlan.be/en/detail/apartment/for-sale/8670/koksijde/rbw16304,False,4225.0
House,cottage,550000.0,253.0,6.0,2.0,Rue de Renaix 159,7890,Ellezelles,50.7327228,3.6482519,1985.0,To renovate,0,1,1.0,,0,,,0,,0,13353.0,,Wallonia,Hainaut,Tournai,23.1,0,,https://immovlan.be/en/detail/cottage/for-sale/7890/ellezelles/vbd56651,False,2174.0
House,residence,165000.0,30.0,2.0,1.0,Verbindingsstraat 2,9220,Hamme,51.0928146,4.1424418,1938.0,Normal,0,1,1.0,,0,,,0,,1,30.0,F,Flanders,East Flanders,Dendermonde,7.7,0,,https://immovlan.be/en/detail/residence/for-sale/9220/hamme/rbv83014,False,5500.0
House,residence,280000.0,,3.0,1.0,,7500,Tournai,50.6056059,3.3880367,,Normal,0,1,1.0,,0,2.0,2.0,0,,0,,C,Wallonia,Hainaut,Tournai,0.1,0,,https://immovlan.be/en/detail/residence/for-sale/7500/tournai/vbe34930,False,
House,residence,195000.0,75.0,2.0,,Rue du Vieux Saule 59,6220,Fleurus,50.4445253,4.5200447,,Normal,0,0,,,0,2.0,2.0,1,102.0,1,223.0,F,Wallonia,Hainaut,Charleroi,6.5,0,,https://immovlan.be/en/detail/residence/for-sale/6220/fleurus/vbe36201,False,2600.0
House,residence,599000.0,225.0,4.0,2.0,Sint-Laurentiusstraat 42B,9130,Doel,51.25433,4.183577,1978.0,Normal,0,1,1.0,,0,4.0,,1,400.0,1,741.0,B,Flanders,East Flanders,Sint-Niklaas,10.3,0,,https://immovlan.be/en/detail/residence/for-sale/9130/doel/rbv82575,False,2662.0
House,residence,200000.0,,3.0,1.0,Chemin de Sovet 84,5502,Thynes,50.2808961,4.9926864,,To renovate,0,1,,,0,3.0,,1,,1,1217.0,F,Wallonia,Namur,Namur,22.5,0,,https://immovlan.be/en/detail/residence/for-sale/5502/thynes/vbd97821,False,
Apartment,apartment,440000.0,120.0,3.0,1.0,Square du Vieux Tilleul 2,1050,Elsene,50.8079254,4.3915528,1970.0,Normal,0,1,1.0,,1,,9.0,0,,1,,B,Brussels,Brussels Capital Region,Uccle,3.8,1,5.0,https://immovlan.be/en/detail/apartment/for-sale/1050/elsene/vbe33770,False,3667.0
Apartment,apartment,179000.0,81.0,1.0,1.0,Avenue de l'Arbre Ballon 22,1090,Jette,50.8928883,4.3234345,,To renovate,0,0,,Super equipped,1,,25.0,0,,1,,B,Brussels,Brussels Capital Region,Bruxelles,5.1,0,18.0,https://immovlan.be/en/detail/apartment/for-sale/1090/jette/vbd56914,False,2210.0
House,residence,460000.0,141.0,2.0,1.0,,8310,Assebroek,51.2020234,3.2550607,1999.0,,0,1,4.0,,0,,,0,,1,200.0,D,Flanders,West Flanders,Bruges,2.3,0,,https://immovlan.be/en/detail/residence/for-sale/8310/assebroek/rbw11436,False,3262.0
House,residence,235000.0,170.0,7.0,2.0,Rue des Alliés 42a,6800,Libramont Chevigny,49.9164407,5.3858621,1992.0,To renovate,0,0,,Partially equipped,0,3.0,4.0,1,40.0,0,140.0,D,Wallonia,Luxembourg,Arlon,40.4,0,,https://immovlan.be/en/detail/residence/for-sale/6800/libramont-chevigny/vbd96225,False,1382.0
House,residence,180000.0,187.0,4.0,1.0,Stationsstraat 15,8600,Diksmuide,51.0335753,2.8675759,,,0,0,,,0,4.0,,0,,0,,F,Flanders,West Flanders,Roeselare,20.3,0,,https://immovlan.be/en/detail/residence/for-sale/8600/diksmuide/rbv87282,False,963.0
House,chalet,110000.0,54.0,1.0,1.0,Allée des Acacias 63,5540,Hastiere Lavaux,50.2127777,4.808074,2007.0,,0,0,,,0,4.0,,1,,1,804.0,D,Wallonia,Namur,Namur,28.6,0,,https://immovlan.be/en/detail/chalet/for-sale/5540/hastiere-lavaux/vbd30077,False,2037.0
House,residence,295000.0,201.0,3.0,2.0,Dorp 29,2288,Bouwel,51.17071,4.742078,1944.0,To renovate,0,0,,,0,4.0,,1,100.0,1,341.0,E,Flanders,Antwerp,Geel,17.4,0,,https://immovlan.be/en/detail/residence/for-sale/2288/bouwel/rbw18250,False,1468.0
House,residence,495000.0,336.0,5.0,2.0,Route de Hamoir 31,4190,Xhoris,50.4455364,5.6050676,1900.0,Normal,0,1,1.0,Partially equipped,0,4.0,2.0,1,640.0,1,850.0,D,Wallonia,Liège,Liège,20.9,0,,https://immovlan.be/en/detail/residence/for-sale/4190/xhoris/vbe00947,False,1473.0
House,residence,519400.0,255.0,3.0,2.0,,6590,Momignies,50.031015,4.1789941,,New,0,1,1.0,,0,4.0,,1,,0,3962.0,A+,Wallonia,Hainaut,Charleroi,46.3,0,,https://immovlan.be/en/detail/residence/for-sale/6590/momignies/vbd09323,False,2037.0
House,residence,450000.0,222.0,5.0,1.0,Route du Tonnelet 36,4900,Spa,50.4910606,5.8808995,,,0,1,1.0,,0,4.0,3.0,1,1789.0,1,1900.0,E,Wallonia,Liège,Verviers,11.0,0,,https://immovlan.be/en/detail/residence/for-sale/4900/spa/vbe34583,False,2027.0
Apartment,apartment,265000.0,132.0,3.0,1.0,Muggenstraat 50 7,3500,Hasselt,50.9317409,5.352981,1986.0,,0,0,,,1,,,0,,0,,C,Flanders,Limburg,Hasselt,1.4,0,3.0,https://immovlan.be/en/detail/apartment/for-sale/3500/hasselt/rbw10981,False,2008.0
Apartment,apartment,219900.0,87.0,1.0,,Lierselei 11 3,2390,Oostmalle,51.30064,4.733909,1993.0,Normal,0,0,,,0,4.0,3.0,0,,1,,C,Flanders,Antwerp,Turnhout,14.9,0,3.0,https://immovlan.be/en/detail/apartment/for-sale/2390/oostmalle/rbw20430,False,2528.0
House,residence,149000.0,130.0,1.0,1.0,,5540,Hastiere Lavaux,50.2183,4.82455,2014.0,Normal,0,0,,,0,4.0,,1,561.0,1,621.0,E,Wallonia,Namur,Namur,27.8,0,,https://immovlan.be/en/detail/residence/for-sale/5540/hastiere-lavaux/vbe25439,False,1146.0
House,mixed-building,1495000.0,472.0,7.0,6.0,Rue Paul Devigne 53-55 53,1030,Schaarbeek,50.8578696,4.3896256,,Fully renovated,0,0,,Super equipped,0,2.0,3.0,1,30.0,1,252.0,C,Brussels,Brussels Capital Region,Bruxelles,2.8,0,,https://immovlan.be/en/detail/mixed-building/for-sale/1030/schaarbeek/vbe35522,False,3167.0
House,residence,179999.0,97.0,2.0,1.0,,6240,Pironchamps,50.4324843,4.5364464,1900.0,Normal,0,0,,Partially equipped,0,2.0,2.0,1,97.0,1,97.0,C,Wallonia,Hainaut,Charleroi,6.9,0,,https://immovlan.be/en/detail/residence/for-sale/6240/pironchamps/vbe34875,False,1856.0
Apartment,duplex,505000.0,120.0,2.0,1.0,Hostert 4,4700,Eupen,50.6321028,6.0312236,2024.0,,0,0,,,0,,,0,,0,,,Wallonia,Liège,Verviers,12.8,0,,https://immovlan.be/en/detail/duplex/for-sale/4700/eupen/vbe14275,False,4208.0
House,cottage,385000.0,151.0,4.0,2.0,Chaussée de Chastre 109a,5140,Sombreffe,50.54563501,4.59302836,,Excellent,0,0,,,0,,,1,400.0,1,588.0,C,Wallonia,Namur,Charleroi,18.3,0,,https://immovlan.be/en/detail/cottage/for-sale/5140/sombreffe/vbe23953,False,2550.0
Apartment,apartment,269000.0,70.0,1.0,1.0,Boulevard Auguste Reyers 55 21,1030,Schaarbeek,50.8516849,4.400229,1959.0,Normal,0,0,,,0,3.0,,0,,1,,E,Brussels,Brussels Capital Region,Bruxelles,3.4,0,1.0,https://immovlan.be/en/detail/apartment/for-sale/1030/schaarbeek/vbe27533,False,3843.0
Apartment,apartment,229000.0,89.0,2.0,1.0,,6220,Fleurus,50.4771076,4.5363885,,,0,1,,,0,2.0,,1,77.0,1,,,Wallonia,Hainaut,Charleroi,9.8,0,0.0,https://immovlan.be/en/detail/apartment/for-sale/6220/fleurus/vba14283,False,2573.0
House,mixed-building,499000.0,180.0,4.0,2.0,Rue Les Vennes 36-37,5377,Somme Leuze,50.2905914,5.3250995,1984.0,Normal,0,1,3.0,,0,4.0,2.0,1,1200.0,1,1750.0,G,Wallonia,Namur,Namur,37.9,0,,https://immovlan.be/en/detail/mixed-building/for-sale/5377/somme-leuze/vbd66249,False,2772.0
Apartment,apartment,198000.0,79.0,2.0,1.0,Keizerstraat 1 1.2,8700,Kanegem,51.0138575,3.4021768,2001.0,,0,1,1.0,,0,,2.0,0,,1,,B,Flanders,West Flanders,Waregem,13.7,0,1.0,https://immovlan.be/en/detail/apartment/for-sale/8700/kanegem/rbv13141,False,2506.0
House,cottage,880000.0,550.0,8.0,2.0,Rue de Bosfagne 31,4950,Sourbrodt,50.4814262,6.1274338,1932.0,,0,1,,,0,,,1,3600.0,1,,,Wallonia,Liège,Verviers,22.2,0,,https://immovlan.be/en/detail/cottage/for-sale/4950/sourbrodt/vbd87863,False,1600.0
House,residence,185000.0,188.0,3.0,,Boulevard des Combattants 56,4470,Saint Georges Sur Meuse,50.5862697,5.36015354,1850.0,,0,0,,,0,4.0,1.0,1,1193.0,1,1500.0,G,Wallonia,Liège,Liège,16.3,0,,https://immovlan.be/en/detail/residence/for-sale/4470/saint-georges-sur-meuse/vbe32259,False,984.0
House,residence,159000.0,64.0,1.0,1.0,Nielsestraat 192,2850,Boom,51.09386,4.353985,,,0,1,1.0,,0,2.0,,0,,0,46.0,C,Flanders,Antwerp,Malines,11.5,0,,https://immovlan.be/en/detail/residence/for-sale/2850/boom/rbw24807,False,2484.0
House,residence,140000.0,145.0,5.0,1.0,Rue Morchamps 203,4100,Seraing,50.6009868,5.5119275,1950.0,To renovate,0,0,,,0,2.0,2.0,1,32.0,0,126.0,F,Wallonia,Liège,Liège,5.9,0,,https://immovlan.be/en/detail/residence/for-sale/4100/seraing/vbe20148,False,966.0
House,mixed-building,379000.0,200.0,3.0,1.0,,5310,Eghezee,50.5833333,4.9,1989.0,,0,1,1.0,Fully equipped,0,3.0,,1,,0,270.0,D,Wallonia,Namur,Namur,13.1,0,,https://immovlan.be/en/detail/mixed-building/for-sale/5310/eghezee/vbe14075,False,1895.0
Apartment,apartment,249000.0,71.0,1.0,1.0,Isabellalei 3A 8,2018,Antwerp,51.2063268,4.4154602,,Excellent,0,0,,,1,,,0,,0,,C,Flanders,Antwerp,Antwerpen,1.7000000000000002,0,3.0,https://immovlan.be/en/detail/apartment/for-sale/2018/antwerp/rbw24707,False,3507.0
House,mixed-building,990000.0,450.0,7.0,7.0,Rue Champêtre 46,5100,Jambes,50.4595225,4.8718991,,To renovate,0,0,,,0,2.0,,1,118.0,0,275.0,E,Wallonia,Namur,Namur,0.9,0,,https://immovlan.be/en/detail/mixed-building/for-sale/5100/jambes/vbe00847,False,2200.0
House,residence,508441.0,148.0,4.0,1.0,,9940,Evergem,51.1101028,3.7067231,,New,0,0,,,0,4.0,,0,,0,1419.0,,Flanders,East Flanders,Gent,6.2,0,,https://immovlan.be/en/detail/residence/for-sale/9940/evergem/vbe36279,False,3435.0
House,residence,457863.0,190.0,4.0,2.0,,5530,Durnal,50.3363,4.98662,,New,0,0,,,0,4.0,,1,,0,2045.0,A+,Wallonia,Namur,Namur,16.8,0,,https://immovlan.be/en/detail/residence/for-sale/5530/durnal/vbe22643,False,2410.0
House,residence,145000.0,120.0,1.0,1.0,Minneplein 27,8900,Ieper,50.8538512,2.88251,1930.0,,0,1,1.0,,0,2.0,,1,,1,50.0,E,Flanders,West Flanders,Roeselare,19.7,0,,https://immovlan.be/en/detail/residence/for-sale/8900/ieper/rbv84558,False,1208.0
House,residence,495000.0,200.0,4.0,1.0,Mouterijstraat 2,8730,Beernem,51.1265104,3.3712613,,Excellent,0,1,1.0,Fully equipped,0,3.0,3.0,1,100.0,1,337.0,A,Flanders,West Flanders,Bruges,13.8,0,,https://immovlan.be/en/detail/residence/for-sale/8730/beernem/rbw18332,False,2475.0
House,residence,1385000.0,545.0,8.0,9.0,La Cornette 32,6830,Bouillon,49.8263889,5.1630556,,Excellent,0,0,,,0,4.0,,1,,1,2477.0,C,Wallonia,Luxembourg,Arlon,49.6,0,,https://immovlan.be/en/detail/residence/for-sale/6830/bouillon/vbe00446,False,2541.0
Apartment,apartment,180000.0,150.0,3.0,2.0,Boulevard Emile Bockstael 140,1020,Laken,50.873454,4.3457535,,To renovate,0,0,,,0,2.0,3.0,0,,1,,,Brussels,Brussels Capital Region,Bruxelles,2.6,0,3.0,https://immovlan.be/en/detail/apartment/for-sale/1020/laken/vbe19833,False,1200.0
Apartment,apartment,259000.0,115.0,2.0,1.0,Brandstraat 48 1,2400,Mol,51.19978,5.130076,1966.0,Normal,0,1,1.0,,0,,,0,,1,,F,Flanders,Antwerp,Geel,10.4,0,,https://immovlan.be/en/detail/apartment/for-sale/2400/mol/rbw17320,False,2252.0
Apartment,studio,200000.0,37.0,1.0,1.0,Boulevard du Jardin Botanique 3 6,1000,Brussels,50.8557609,4.3558594,2009.0,New,0,0,,,1,,7.0,0,,0,,E,Brussels,Brussels Capital Region,Bruxelles,0.7000000000000001,0,6.0,https://immovlan.be/en/detail/studio/for-sale/1000/brussels/vbe30694,False,5405.0
Apartment,apartment,130000.0,46.0,1.0,1.0,Rue Uyttenhove 33,1090,Jette,50.8703247,4.336441,1997.0,Normal,0,0,,Fully equipped,1,4.0,8.0,0,,0,,D,Brussels,Brussels Capital Region,Bruxelles,2.5,0,2.0,https://immovlan.be/en/detail/apartment/for-sale/1090/jette/vbe32567,False,2826.0
House,residence,300000.0,210.0,3.0,1.0,Mechelsesteenweg 36,2830,Willebroek,51.0593446,4.3657301,1960.0,Normal,0,0,,,0,2.0,,1,,1,,D,Flanders,Antwerp,Malines,8.7,0,,https://immovlan.be/en/detail/residence/for-sale/2830/willebroek/vwd17863,False,1429.0
Apartment,apartment,163500.0,69.0,1.0,1.0,Zwaluwenstraat 159 0201,8400,Oostende,51.21809,2.914051,1935.0,,0,0,,,0,,,0,,0,,B,Flanders,West Flanders,Ostende,1.1,0,2.0,https://immovlan.be/en/detail/apartment/for-sale/8400/oostende/rbv84962,False,2370.0
House,residence,394000.0,141.0,3.0,,Bosveld 12 B,9300,Aalst,50.93754,4.04108,,New,0,1,,,0,2.0,,1,,1,141.0,A,Flanders,East Flanders,Alost,0.1,0,,https://immovlan.be/en/detail/residence/for-sale/9300/aalst/rbv30401,False,2794.0
House,residence,375000.0,196.0,3.0,1.0,Maaldestedestraat 18,8902,Zillebeke,50.8381798,2.9220232,1987.0,Excellent,0,1,1.0,,0,3.0,,1,,0,600.0,C,Flanders,West Flanders,Roeselare,18.4,0,,https://immovlan.be/en/detail/residence/for-sale/8902/zillebeke/rbw25656,False,1913.0
House,residence,229000.0,282.0,5.0,1.0,Chaussée de Namur 10,6061,Montignies Sur Sambre,50.4221949,4.4663585,1887.0,To renovate,0,1,1.0,Fully equipped,0,2.0,3.0,1,,1,390.0,E,Wallonia,Hainaut,Charleroi,2.0,0,,https://immovlan.be/en/detail/residence/for-sale/6061/montignies-sur-sambre/vbe12100,False,812.0
House,residence,249000.0,174.0,3.0,,Leuvensebaan 178,2580,Beerzel,51.0307995,4.6360281,1947.0,To renovate,0,1,2.0,,0,4.0,,1,,1,525.0,F,Flanders,Antwerp,Malines,11.1,0,,https://immovlan.be/en/detail/residence/for-sale/2580/beerzel/rbw10288,False,1431.0
House,residence,225000.0,237.0,6.0,1.0,Rue de la fontaine 1,6870,Saint Hubert,50.0262144,5.3729959,1962.0,Normal,0,0,,,0,,,0,,0,117.0,E,Wallonia,Luxembourg,Arlon,49.7,0,,https://immovlan.be/en/detail/residence/for-sale/6870/saint-hubert/vbe28344,False,949.0
House,residence,355000.0,,3.0,2.0,Vetexpad 12,8500,Kortrijk,50.815474,3.2718398,,New,0,0,,,0,2.0,,1,,0,144.0,,Flanders,West Flanders,Kortrijk,1.5,0,,https://immovlan.be/en/detail/residence/for-sale/8500/kortrijk/rbv59791,False,
Apartment,studio,72000.0,35.0,1.0,1.0,Avenue de Houffalize 23 33,6800,Libramont Chevigny,49.9230008,5.3789188,1981.0,Normal,0,0,,Partially equipped,0,,3.0,0,,0,,G,Wallonia,Luxembourg,Arlon,41.2,0,3.0,https://immovlan.be/en/detail/studio/for-sale/6800/libramont-chevigny/vbe05269,False,2057.0
House,mixed-building,280000.0,460.0,4.0,3.0,rue du progrès 19,7170,Bois D Haine,50.493438,4.208347,1950.0,Normal,0,1,1.0,,0,3.0,2.0,0,,1,546.0,,Wallonia,Hainaut,La Louvière,2.1,0,,https://immovlan.be/en/detail/mixed-building/for-sale/7170/bois-d-haine/vbe35217,False,609.0
Apartment,apartment,385000.0,123.0,4.0,2.0,,6900,Marche En Famenne,50.2282896,5.3441606,,,1,0,,,1,,3.0,0,,1,,C,Wallonia,Luxembourg,Namur,43.0,0,,https://immovlan.be/en/detail/apartment/for-sale/6900/marche-en-famenne/vbe28763,False,3130.0
House,villa,595000.0,239.0,3.0,1.0,Magerbeek 11,2910,Essen,51.46291,4.467615,1998.0,Normal,0,1,1.0,,0,4.0,,1,,1,712.0,C,Flanders,Antwerp,Breda,24.1,0,,https://immovlan.be/en/detail/villa/for-sale/2910/essen/rbw16348,False,2490.0
House,villa,669000.0,308.0,4.0,2.0,Buke 100,9620,Zottegem,50.88108,3.82162,,Normal,0,1,,,0,,,1,1700.0,1,,C,Flanders,East Flanders,Alost,16.5,0,,https://immovlan.be/en/detail/villa/for-sale/9620/zottegem/rbw03856,False,2172.0
House,residence,259000.0,194.0,3.0,1.0,Rue du cimetiere 14,4210,Burdinne,50.576866,5.1440527,1940.0,Excellent,0,0,,Fully equipped,0,3.0,3.0,1,351.0,1,461.0,E,Wallonia,Liège,Namur,23.1,0,,https://immovlan.be/en/detail/residence/for-sale/4210/burdinne/vbe08275,False,1335.0
House,residence,185000.0,165.0,3.0,1.0,Molenstraat 49,9500,Geraardsbergen,50.77032,3.882103,,Normal,0,0,,,0,2.0,,0,,0,60.0,C,Flanders,East Flanders,Alost,21.7,0,,https://immovlan.be/en/detail/residence/for-sale/9500/geraardsbergen/rbw11599,False,1121.0
House,residence,435000.0,452.0,5.0,2.0,Rue des Bayards 27,4000,Liege,50.651787,5.6012434,,,0,1,1.0,Fully equipped,0,2.0,1.0,1,364.0,1,446.0,C,Wallonia,Liège,Liège,2.6,0,,https://immovlan.be/en/detail/residence/for-sale/4000/liege/vbe33752,False,962.0
House,residence,85000.0,80.0,1.0,,Rue Warichay 2,6997,Erezee,50.3168058,5.5561514,1850.0,To renovate,0,0,,,0,3.0,2.0,1,,0,622.0,,Wallonia,Luxembourg,Liège,35.2,0,,https://immovlan.be/en/detail/residence/for-sale/6997/erezee/vbe06541,False,1062.0
House,residence,869000.0,275.0,4.0,2.0,Keelstraat 94,3800,Sint Truiden,50.8396034,5.2343045,1976.0,,0,0,,,0,,,1,,0,2850.0,B,Flanders,Limburg,Sint-Truiden,4.1,0,,https://immovlan.be/en/detail/residence/for-sale/3800/sint-truiden/rbv80512,False,3160.0
House,residence,250000.0,108.0,2.0,1.0,Rue de la Malogne 19,7100,La Louviere,50.4733823,4.2079815,2025.0,New,0,0,,Super equipped,0,2.0,1.0,0,,1,86.0,A,Wallonia,Hainaut,La Louvière,1.5,0,,https://immovlan.be/en/detail/residence/for-sale/7100/la-louviere/vbe35855,False,2315.0
Apartment,apartment,289000.0,95.0,2.0,1.0,Parelstraat 5 2,2500,Lier,51.13459,4.569686,2001.0,Normal,0,0,,,1,2.0,,0,,1,,B,Flanders,Antwerp,Malines,13.7,0,,https://immovlan.be/en/detail/apartment/for-sale/2500/lier/rbw17632,False,3042.0
House,residence,650000.0,200.0,2.0,1.0,,6940,Barvaux Sur Ourthe,50.35064,5.49306,1978.0,,0,1,4.0,,0,4.0,,1,,1,915.0,E,Wallonia,Luxembourg,Liège,31.9,0,,https://immovlan.be/en/detail/residence/for-sale/6940/barvaux-sur-ourthe/vbe26978,False,3250.0
House,residence,396551.0,184.0,3.0,1.0,,5340,Faulx Les Tombes,50.42693,5.02089,,New,0,1,1.0,,0,4.0,,1,,0,715.0,A+,Wallonia,Namur,Namur,11.7,0,,https://immovlan.be/en/detail/residence/for-sale/5340/faulx-les-tombes/vbd61783,False,2155.0
House,residence,514000.0,194.0,3.0,1.0,Avenue Jean Gouders,4845,Jalhay,50.51492938,5.93837563,2025.0,Excellent,0,1,,,0,4.0,1.0,1,,1,813.0,A,Wallonia,Liège,Verviers,9.8,0,,https://immovlan.be/en/detail/residence/for-sale/4845/jalhay/vbe07253,False,2649.0
House,residence,640000.0,335.0,3.0,1.0,,7700,Mouscron,50.7459126,3.219272,,Normal,0,1,1.0,Super equipped,0,4.0,1.0,1,,1,1478.0,E,Wallonia,Hainaut,Mouscron,0.5,0,,https://immovlan.be/en/detail/residence/for-sale/7700/mouscron/vbc48425,False,1910.0
House,villa,999000.0,222.0,3.0,2.0,BOOTDIJKSTRAAT 49,9220,Hamme,51.0743,4.163605,2019.0,,0,1,2.0,,0,4.0,,1,,1,,A,Flanders,East Flanders,Dendermonde,6.7,0,,https://immovlan.be/en/detail/villa/for-sale/9220/hamme/rbw13354,False,4500.0
House,residence,325000.0,230.0,4.0,1.0,Rue du Noly 92,5081,Bovesse,50.5227672,4.7714124,,,0,0,,,0,3.0,,1,,1,450.0,D,Wallonia,Namur,Namur,9.2,0,,https://immovlan.be/en/detail/residence/for-sale/5081/bovesse/vbe05895,False,1413.0
House,residence,1500000.0,1300.0,19.0,9.0,,6997,Soy,50.28564,5.51107,,Normal,0,0,,,0,4.0,,0,,0,13581.0,,Wallonia,Luxembourg,Liège,38.9,0,,https://immovlan.be/en/detail/residence/for-sale/6997/soy/vbd96919,False,1154.0
House,villa,1475000.0,413.0,4.0,3.0,Tivolilaan 79,2800,Mechelen,51.0492,4.476486,,Normal,0,1,1.0,,0,4.0,,1,550.0,1,1303.0,C,Flanders,Antwerp,Malines,2.6,0,,https://immovlan.be/en/detail/villa/for-sale/2800/mechelen/rbv83142,False,3571.0
House,residence,398000.0,259.0,4.0,1.0,Wildendries 20,9400,Ninove,50.8441618,3.9583452,,Excellent,0,1,1.0,,0,2.0,,1,,1,380.0,C,Flanders,East Flanders,Alost,11.9,0,,https://immovlan.be/en/detail/residence/for-sale/9400/ninove/rbw24974,False,1537.0
Apartment,studio,89900.0,25.0,,1.0,Parklaan 1 0303,8434,Westende,51.1706646,2.7803696,1974.0,Normal,1,0,,Partially equipped,0,2.0,8.0,0,,1,,C,Flanders,West Flanders,Ostende,11.5,0,3.0,https://immovlan.be/en/detail/studio/for-sale/8434/westende/rbv46521,False,3596.0
House,residence,229000.0,121.0,2.0,1.0,,7700,Mouscron,50.7459126,3.219272,,Normal,0,1,1.0,Fully equipped,0,3.0,2.0,1,,1,223.0,F,Wallonia,Hainaut,Mouscron,0.5,0,,https://immovlan.be/en/detail/residence/for-sale/7700/mouscron/vbe32308,False,1893.0
Apartment,apartment,173000.0,90.0,2.0,1.0,Eikelplein 22 2,3980,Tessenderlo,51.0684128,5.1267489,1977.0,To renovate,0,1,1.0,Partially equipped,0,2.0,,0,,1,,B,Flanders,Limburg,Geel,14.3,0,2.0,https://immovlan.be/en/detail/apartment/for-sale/3980/tessenderlo/rbw16275,False,1922.0
House,residence,465358.0,192.0,3.0,2.0,,4300,Waremme,50.69757,5.25553,,New,0,1,1.0,,0,4.0,,1,,0,1000.0,A+,Wallonia,Liège,Sint-Truiden,14.2,0,,https://immovlan.be/en/detail/residence/for-sale/4300/waremme/vbe08732,False,2424.0
Apartment,ground-floor,199000.0,84.0,1.0,1.0,Liersesteenweg 254 GLV,2640,Mortsel,51.16817,4.473844,1973.0,To renovate,0,1,1.0,,0,2.0,,0,,0,,D,Flanders,Antwerp,Antwerpen,7.6,0,,https://immovlan.be/en/detail/ground-floor/for-sale/2640/mortsel/rbw11059,False,2369.0
Apartment,apartment,180000.0,75.0,2.0,1.0,Lange Beeldekensstraat 193 V3,2060,Antwerp,51.22146,4.43004,,Normal,0,0,,,0,2.0,,0,,1,,F,Flanders,Antwerp,Antwerpen,1.9,0,3.0,https://immovlan.be/en/detail/apartment/for-sale/2060/antwerp/rbv92986,False,2400.0
Apartment,apartment,135000.0,78.0,2.0,2.0,Rue de la Victoire 1 /301,6880,Bertrix,49.8548717,5.258163,1992.0,Normal,0,0,,Partially equipped,1,,,0,,0,,E,Wallonia,Luxembourg,Arlon,44.4,0,,https://immovlan.be/en/detail/apartment/for-sale/6880/bertrix/vbe26701,False,1731.0
House,residence,755000.0,257.0,4.0,2.0,Emiel Lossystraat 71,9040,Sint Amandsberg,51.0489059,3.7603063,2024.0,,0,0,,,0,3.0,4.0,0,,0,182.0,,Flanders,East Flanders,Gent,3.1,0,,https://immovlan.be/en/detail/residence/for-sale/9040/sint-amandsberg/rbw17231,False,2938.0
Apartment,apartment,299000.0,,3.0,1.0,Neremweg 32 0001,3700,Tongeren,50.77792271,5.47220255,2023.0,,0,1,,,1,,,1,,1,,A+,Flanders,Limburg,Maastricht,17.4,0,0.0,https://immovlan.be/en/detail/apartment/for-sale/3700/tongeren/rbu58281,False,
Apartment,apartment,249000.0,92.0,2.0,,Menenstraat 116 001,8560,Wevelgem,50.8064043,3.1716514,2019.0,,0,1,1.0,,0,,,0,,0,,A,Flanders,West Flanders,Kortrijk,7.0,0,,https://immovlan.be/en/detail/apartment/for-sale/8560/wevelgem/rbw25566,False,2707.0
House,residence,680000.0,184.0,6.0,2.0,Zwaantjesstraat 25,9090,Melle,51.0126419,3.7837947,1936.0,,0,0,,,0,3.0,,1,,0,1211.0,E,Flanders,East Flanders,Gent,6.6,0,,https://immovlan.be/en/detail/residence/for-sale/9090/melle/rbu96143,False,3696.0
Apartment,apartment,278000.0,97.0,2.0,1.0,Clos de l'Amandier 13 B,6800,Libramont Chevigny,49.9149167,5.3569556,2022.0,Excellent,0,1,,Super equipped,1,4.0,2.0,0,,1,,A,Wallonia,Luxembourg,Arlon,41.9,0,2.0,https://immovlan.be/en/detail/apartment/for-sale/6800/libramont-chevigny/vbe21178,False,2866.0
House,residence,650000.0,600.0,10.0,3.0,Rue de France 45,5575,Gedinne,49.9586787,4.9255171,,Normal,1,1,1.0,Super equipped,0,3.0,3.0,1,,1,523.0,C,Wallonia,Namur,Namur,56.7,0,,https://immovlan.be/en/detail/residence/for-sale/5575/gedinne/vbd89596,False,1083.0
House,villa,422500.0,111.0,3.0,1.0,Chaussée de Gramptinne 67B,5340,Faulx Les Tombes,50.4254558,5.0057265,2022.0,Excellent,0,0,,Super equipped,0,4.0,4.0,1,809.0,0,885.0,B,Wallonia,Namur,Namur,10.8,0,,https://immovlan.be/en/detail/villa/for-sale/5340/faulx-les-tombes/vbe33019,False,3806.0
Apartment,apartment,239900.0,56.0,1.0,1.0,Justitiestraat 25 503,2018,Antwerp,51.20897,4.406395,1961.0,Normal,0,0,,,1,3.0,6.0,0,,0,,B,Flanders,Antwerp,Antwerpen,1.2,0,5.0,https://immovlan.be/en/detail/apartment/for-sale/2018/antwerp/rbw17161,False,4284.0
House,chalet,59000.0,42.0,2.0,1.0,rue du village vallee les étoiles 171,5542,Blaimont,50.19238,4.83428,1977.0,Excellent,1,0,,,0,4.0,1.0,1,280.0,1,280.0,,Wallonia,Namur,Namur,30.6,0,,https://immovlan.be/en/detail/chalet/for-sale/5542/blaimont/rbt31389,False,1405.0
Apartment,apartment,189000.0,63.0,2.0,1.0,Rue de Heembeek 207,1120,Neder Over Heembeek,50.891948,4.3823182,1953.0,Normal,0,0,,Partially equipped,0,2.0,2.0,0,,1,,D,Brussels,Brussels Capital Region,Bruxelles,5.1,0,1.0,https://immovlan.be/en/detail/apartment/for-sale/1120/neder-over-heembeek/vbe28782,False,3000.0
House,residence,455000.0,175.0,3.0,1.0,Rue du Refuge 17,6900,Marche En Famenne,50.2344089,5.3945533,2006.0,,0,1,1.0,,0,,,1,,0,1152.0,B,Wallonia,Luxembourg,Namur,45.5,0,,https://immovlan.be/en/detail/residence/for-sale/6900/marche-en-famenne/vbe34416,False,2600.0
House,residence,150000.0,66.0,2.0,1.0,Rue de la Bouteille 29,4100,Seraing,50.586053,5.5038844000000005,,To renovate,0,1,1.0,Partially equipped,0,2.0,1.0,0,,1,,F,Wallonia,Liège,Liège,7.4,0,,https://immovlan.be/en/detail/residence/for-sale/4100/seraing/vbe34318,False,2273.0
House,residence,369000.0,185.0,4.0,1.0,Rue de Jeumont 10,6181,Gouy Lez Pieton,50.4859216,4.31079171,,Normal,0,1,1.0,,0,3.0,,0,,0,600.0,C,Wallonia,Hainaut,La Louvière,8.7,0,,https://immovlan.be/en/detail/residence/for-sale/6181/gouy-lez-pieton/vbe29185,False,1995.0
Apartment,triplex,160000.0,185.0,6.0,,,6150,Anderlues,50.4,4.2666667,2020.0,Excellent,0,1,,,0,3.0,3.0,0,,1,,,Wallonia,Hainaut,La Louvière,10.4,0,,https://immovlan.be/en/detail/triplex/for-sale/6150/anderlues/vwd17167,False,865.0
House,residence,488000.0,300.0,5.0,2.0,,6043,Ransart,50.4617198,4.4760083,,,0,1,2.0,,0,4.0,,1,1300.0,1,1581.0,B,Wallonia,Hainaut,Charleroi,6.1,0,,https://immovlan.be/en/detail/residence/for-sale/6043/ransart/vbe28068,False,1627.0
Apartment,apartment,166500.0,54.0,2.0,1.0,Greinstraat 53,2060,Antwerp,51.2213906,4.425165,1966.0,,0,0,,,1,,,0,,0,,,Flanders,Antwerp,Antwerpen,1.6,0,3.0,https://immovlan.be/en/detail/apartment/for-sale/2060/antwerp/rbw10884,False,3083.0
House,residence,279000.0,212.0,3.0,1.0,,7700,Mouscron,50.7459126,3.219272,1936.0,Excellent,0,0,,,0,,2.0,1,60.0,1,,D,Wallonia,Hainaut,Mouscron,0.5,0,,https://immovlan.be/en/detail/residence/for-sale/7700/mouscron/vbe32907,False,1316.0
House,residence,423259.0,148.0,4.0,1.0,,5590,Ciney,50.2956773,5.1008307,,New,0,0,,,0,4.0,,1,,0,4650.0,A+,Wallonia,Namur,Namur,25.2,0,,https://immovlan.be/en/detail/residence/for-sale/5590/ciney/vbe10370,False,2860.0
House,residence,199000.0,117.0,3.0,1.0,,7700,Mouscron,50.7459126,3.219272,,Excellent,0,0,,Fully equipped,0,2.0,,1,100.0,1,175.0,C,Wallonia,Hainaut,Mouscron,0.5,0,,https://immovlan.be/en/detail/residence/for-sale/7700/mouscron/vbe31588,False,1701.0
House,residence,130000.0,115.0,2.0,1.0,Rue des Taillis 6,4577,Modave,50.481267,5.2883911,1977.0,To renovate,0,0,,,0,4.0,,0,,0,922.0,G,Wallonia,Liège,Liège,26.6,0,,https://immovlan.be/en/detail/residence/in-public-sale/4577/modave/vbe36819,False,1130.0
Apartment,studio,84000.0,35.0,1.0,1.0,Rue Porte aux Oies 6,4020,Liege,50.6394394,5.5854796,,Normal,0,0,,,0,2.0,2.0,0,,0,,E,Wallonia,Liège,Liège,0.9,0,0.0,https://immovlan.be/en/detail/studio/for-sale/4020/liege/vbe26747,False,2400.0
House,master-house,895000.0,340.0,5.0,1.0,Heriweg 111,9506,Idegem,50.8042431,3.9143656,1932.0,To renovate,0,1,1.0,,0,4.0,2.0,1,,1,2611.0,F,Flanders,East Flanders,Alost,17.3,0,,https://immovlan.be/en/detail/master-house/for-sale/9506/idegem/rbv76062,False,2632.0
House,residence,389000.0,197.0,4.0,1.0,,5020,Malonne,50.43896,4.79566,1910.0,,0,1,1.0,,0,4.0,,0,,1,605.0,E,Wallonia,Namur,Namur,6.0,0,,https://immovlan.be/en/detail/residence/for-sale/5020/malonne/vbe34407,False,1975.0
House,villa,965000.0,208.0,3.0,2.0,Mechelbaan 73,2861,Onze Lieve Vrouw Waver,51.0547929,4.5618516,2025.0,,0,1,1.0,Super equipped,0,4.0,2.0,1,700.0,1,837.0,,Flanders,Antwerp,Malines,6.7,0,,https://immovlan.be/en/detail/villa/for-sale/2861/onze-lieve-vrouw-waver/rbw18027,False,4639.0
House,residence,299000.0,153.0,4.0,1.0,Jozef De Blockstraat 17,2830,Tisselt,51.03654,4.354035,1919.0,To renovate,0,1,1.0,,0,3.0,,1,200.0,1,270.0,F,Flanders,Antwerp,Malines,8.7,0,,https://immovlan.be/en/detail/residence/for-sale/2830/tisselt/rbv94461,False,1954.0
Apartment,studio,139000.0,45.0,1.0,1.0,QUAI INDUSTRIE 242,1070,Anderlecht,50.83736,4.31815,1950.0,Normal,0,0,,,0,,3.0,0,,0,,G,Brussels,Brussels Capital Region,Bruxelles,2.8,0,3.0,https://immovlan.be/en/detail/studio/for-sale/1070/anderlecht/vbe33873,False,3089.0
House,residence,185000.0,150.0,2.0,1.0,Rue de la Paix 1,4540,Amay,50.5467976,5.3191439,1950.0,Normal,0,1,1.0,Fully equipped,0,3.0,2.0,0,,0,32.0,E,Wallonia,Liège,Liège,20.7,0,,https://immovlan.be/en/detail/residence/for-sale/4540/amay/vbe26892,False,1233.0
House,master-house,474000.0,250.0,5.0,3.0,Diksmuidelaan 196,2600,Berchem,51.1944,4.445515,1930.0,Normal,0,0,,,0,2.0,,1,,1,159.0,D,Flanders,Antwerp,Antwerpen,4.1,0,,https://immovlan.be/en/detail/master-house/for-sale/2600/berchem/rbw17049,False,1896.0
House,residence,465000.0,175.0,3.0,1.0,L. Van Kerckhovenstraat 58,2870,Puurs Sint Amands,51.0745182,4.2960198,1957.0,Excellent,0,0,,,0,3.0,,1,,1,469.0,C,Flanders,Antwerp,Malines,13.8,0,,https://immovlan.be/en/detail/residence/for-sale/2870/puurs-sint-amands/rbv71226,False,2657.0
Apartment,apartment,570000.0,1521.0,2.0,1.0,Avenue Armand Huysmans 70,1050,Elsene,50.8134026,4.3868242,1968.0,,0,1,1.0,,1,2.0,6.0,0,,1,,D,Brussels,Brussels Capital Region,Uccle,3.7,1,2.0,https://immovlan.be/en/detail/apartment/for-sale/1050/elsene/vbe35582,False,375.0
House,residence,185000.0,100.0,3.0,1.0,Rue de la Gare 2,4020,Liege,50.6689883,5.6601278,1950.0,Normal,0,0,,,0,2.0,,0,,1,85.0,E,Wallonia,Liège,Liège,7.0,0,,https://immovlan.be/en/detail/residence/for-sale/4020/liege/vbe36634,False,1850.0
House,residence,159000.0,188.0,2.0,,,9700,Oudenaarde,50.8469306,3.6014367,1887.0,To renovate,0,0,,,0,2.0,,1,,0,380.0,F,Flanders,East Flanders,Waregem,13.2,0,,https://immovlan.be/en/detail/residence/for-sale/9700/oudenaarde/rbv38809,False,846.0
House,residence,289000.0,143.0,3.0,1.0,Herentalsesteenweg 81,2275,Lille,51.22184,4.830276,1959.0,To renovate,0,1,1.0,,0,4.0,,1,,1,920.0,F,Flanders,Antwerp,Geel,12.9,0,,https://immovlan.be/en/detail/residence/for-sale/2275/lille/rbv94050,False,2021.0
House,residence,490000.0,154.0,3.0,2.0,Chaussée Brunehault 69,7850,Petit Enghien,50.6998095,4.0629475,2019.0,Excellent,0,1,,Fully equipped,0,4.0,,1,,1,901.0,B,Wallonia,Hainaut,La Louvière,26.0,0,,https://immovlan.be/en/detail/residence/for-sale/7850/petit-enghien/vwd17304,False,3182.0
Apartment,apartment,195000.0,88.0,2.0,1.0,Boulevard de Smet de Naeyer 383,1090,Jette,50.8833141,4.33563991,1963.0,Normal,0,0,,,0,3.0,5.0,0,,0,,F,Brussels,Brussels Capital Region,Bruxelles,3.8,0,,https://immovlan.be/en/detail/apartment/for-sale/1090/jette/vbd89168,False,2216.0
House,residence,290000.0,222.0,5.0,1.0,Rue des Charentes 13,7100,La Louviere,50.4598209,4.164217,,Normal,0,1,1.0,Partially equipped,0,2.0,3.0,1,,1,,E,Wallonia,Hainaut,La Louvière,2.8,0,,https://immovlan.be/en/detail/residence/for-sale/7100/la-louviere/vbe31287,False,1306.0
House,residence,150000.0,71.0,1.0,1.0,Rue du Général Jacques 40,4051,Vaux Sous Chevremont,50.5991513,5.6300552,,To renovate,0,1,,Partially equipped,0,2.0,1.0,1,,1,,D,Wallonia,Liège,Liège,5.1,0,,https://immovlan.be/en/detail/residence/for-sale/4051/vaux-sous-chevremont/vbe24590,False,2113.0
House,residence,220000.0,200.0,3.0,1.0,Rue Hollefra 3,6700,Arlon,49.6966875,5.79193363,,To renovate,0,1,1.0,,0,3.0,,1,,0,535.0,G,Wallonia,Luxembourg,Arlon,2.3,0,,https://immovlan.be/en/detail/residence/for-sale/6700/arlon/vbd46142,False,1100.0
House,residence,209000.0,150.0,3.0,1.0,,7700,Mouscron,50.7459126,3.219272,1930.0,Fully renovated,0,0,,,0,,,1,130.0,1,,G,Wallonia,Hainaut,Mouscron,0.5,0,,https://immovlan.be/en/detail/residence/for-sale/7700/mouscron/vbe32973,False,1393.0
House,villa,495000.0,250.0,5.0,1.0,Kastanjestraat 28,9500,Geraardsbergen,50.7653937,3.8390371,1979.0,To renovate,0,1,1.0,Fully equipped,0,4.0,,1,1200.0,1,1495.0,C,Flanders,East Flanders,Alost,23.8,0,,https://immovlan.be/en/detail/villa/for-sale/9500/geraardsbergen/rbw17024,False,1980.0
House,residence,550000.0,464.0,5.0,1.0,Fehrenbachstraat 25,2440,Geel,51.1565,4.991133,1964.0,To renovate,0,1,1.0,,0,3.0,,0,,0,1000.0,F,Flanders,Antwerp,Geel,0.9,0,,https://immovlan.be/en/detail/residence/for-sale/2440/geel/rbw17288,False,1185.0
House,residence,269000.0,179.0,3.0,2.0,Rue Fond Leval 19,4140,Sprimont,50.5072946,5.6609894,1960.0,,0,0,,Fully equipped,0,2.0,2.0,1,100.0,1,288.0,E,Wallonia,Liège,Liège,15.1,0,,https://immovlan.be/en/detail/residence/for-sale/4140/sprimont/vbe33021,False,1503.0
Apartment,apartment,396700.0,134.0,3.0,2.0,Rue de Forges,6460,Chimay,50.0397323,4.321065,,New,0,0,,Fully equipped,0,2.0,,1,167.0,1,,A,Wallonia,Hainaut,Charleroi,42.2,0,0.0,https://immovlan.be/en/detail/apartment/for-sale/6460/chimay/vbe20817,False,2960.0
House,residence,586757.0,207.0,4.0,2.0,,9320,Erembodegem,50.9206095,4.060892,,New,0,1,1.0,,0,4.0,,1,,0,1454.0,,Flanders,East Flanders,Alost,2.4,0,,https://immovlan.be/en/detail/residence/for-sale/9320/erembodegem/vbe00011,False,2835.0
Apartment,apartment,199000.0,76.0,2.0,1.0,Runkstersteenweg 92 3,3500,Hasselt,50.92757,5.328095,1957.0,Normal,0,0,,,0,2.0,,0,,0,,B,Flanders,Limburg,Hasselt,0.5,0,1.0,https://immovlan.be/en/detail/apartment/for-sale/3500/hasselt/rbw17465,False,2618.0
Apartment,apartment,117000.0,35.0,1.0,1.0,Rue Henri Lecocq 8 8,5000,Namur,50.4606934,4.8425453,1977.0,,0,0,,,1,,,0,,0,,C,Wallonia,Namur,Namur,1.9,0,,https://immovlan.be/en/detail/apartment/for-sale/5000/namur/vbe34653,False,3343.0
House,residence,529550.0,185.0,3.0,2.0,,2960,Brecht,51.3496533,4.6377227,,New,0,1,1.0,,0,4.0,,0,,0,1585.0,,Flanders,Antwerp,Turnhout,21.5,0,,https://immovlan.be/en/detail/residence/for-sale/2960/brecht/vbe12187,False,2862.0
House,residence,200000.0,156.0,3.0,1.0,rue du Calvaire 18,6560,Hantes Wiheries,50.3079073,4.18068445,,Normal,0,0,,,0,4.0,,0,,1,,G,Wallonia,Hainaut,La Louvière,19.1,0,,https://immovlan.be/en/detail/residence/for-sale/6560/hantes-wiheries/vbe36818,False,1282.0
House,residence,275000.0,170.0,4.0,1.0,,7700,Mouscron,50.7459126,3.219272,1970.0,Excellent,0,0,,,0,,,1,174.0,1,,G,Wallonia,Hainaut,Mouscron,0.5,0,,https://immovlan.be/en/detail/residence/for-sale/7700/mouscron/vbe32964,False,1618.0
Apartment,apartment,179000.0,87.0,2.0,1.0,Wolvenstraat 25 5,9620,Zottegem,50.8693268,3.8070636,1975.0,,0,1,1.0,,1,,3.0,0,,1,,B,Flanders,East Flanders,Alost,18.0,0,2.0,https://immovlan.be/en/detail/apartment/for-sale/9620/zottegem/rbv96580,False,2057.0
House,residence,723840.0,299.0,4.0,2.0,,2570,Duffel,51.0980628,4.5051426,,New,0,1,2.0,,0,4.0,,0,,0,544.0,,Flanders,Antwerp,Malines,8.3,0,,https://immovlan.be/en/detail/residence/for-sale/2570/duffel/vbd84490,False,2421.0
Apartment,apartment,995000.0,79.0,3.0,1.0,Duindistelstraat 7 32,8300,Knokke,51.3544569,3.2961221,,Excellent,0,0,,,1,,,0,,0,,B,Flanders,West Flanders,Knokke-Heist,1.0,1,3.0,https://immovlan.be/en/detail/apartment/for-sale/8300/knokke/rbv26632,False,12595.0
House,mixed-building,199000.0,,,,Rue de la Madeleine 48,7500,Tournai,50.6110804,3.381284,,To renovate,0,0,,Fully equipped,0,2.0,,0,,1,440.0,E,Wallonia,Hainaut,Tournai,0.7000000000000001,0,,https://immovlan.be/en/detail/mixed-building/for-sale/7500/tournai/vbc80112,False,
Apartment,apartment,391672.0,103.0,2.0,1.0,Jan Van Rijswijcklaan 308,2020,Antwerp,51.1850093,4.3908314,,New,0,1,,,1,,7.0,1,,1,,,Flanders,Antwerp,Antwerpen,3.9,0,5.0,https://immovlan.be/en/detail/apartment/for-sale/2020/antwerp/rbv48198,False,3803.0
House,bungalow,47900.0,55.0,2.0,1.0,Rue de Cousolre 84 38,6560,Bersillies L Abbaye,50.2588492,4.1565524,2010.0,Normal,0,1,,Fully equipped,0,4.0,,1,150.0,0,200.0,,Wallonia,Hainaut,La Louvière,24.7,0,,https://immovlan.be/en/detail/bungalow/for-sale/6560/bersillies-l-abbaye/vbe04144,False,871.0
House,residence,170000.0,183.0,3.0,1.0,Rue du Ham 406,7712,Herseaux,50.7144279,3.2192747,1933.0,To renovate,0,1,,Fully equipped,0,3.0,2.0,1,99.0,1,290.0,G,Wallonia,Hainaut,Mouscron,3.3,0,,https://immovlan.be/en/detail/residence/for-sale/7712/herseaux/vbd95246,False,929.0
House,residence,115000.0,206.0,3.0,1.0,Rue Paul Janson 19,6560,Grand Reng,50.3282879,4.0708968,,To renovate,0,1,1.0,,0,,2.0,0,,0,550.0,,Wallonia,Hainaut,Mons,16.3,0,,https://immovlan.be/en/detail/residence/for-sale/6560/grand-reng/vbd91689,False,558.0
House,residence,409000.0,127.0,3.0,1.0,Papaverstraat 52,2170,Merksem,51.25282,4.440447,1956.0,Normal,0,0,,,0,2.0,,0,,0,186.0,C,Flanders,Antwerp,Antwerpen,4.6,0,,https://immovlan.be/en/detail/residence/for-sale/2170/merksem/rbw19640,False,3220.0
Apartment,ground-floor,293500.0,119.0,3.0,1.0,Rue d'Houdeng 28,7070,Le Roeulx,50.5021374,4.1108248,,New,0,1,1.0,Fully equipped,1,3.0,2.0,1,,1,,,Wallonia,Hainaut,La Louvière,6.1,0,,https://immovlan.be/en/detail/ground-floor/for-sale/7070/le-roeulx/vbe15673,False,2466.0
House,residence,295000.0,208.0,6.0,1.0,Büllinger Straße 94,4771,Heppenbach,50.3584381,6.1846472,1968.0,,0,0,,,0,,,1,645.0,0,,,Wallonia,Liège,Verviers,34.3,0,,https://immovlan.be/en/detail/residence/for-sale/4771/heppenbach/vbe36503,False,1418.0
House,residence,399500.0,150.0,3.0,1.0,Rue de Dinant 20,4550,Nandrin,50.5057141,5.3931054,1918.0,Normal,0,1,1.0,Super equipped,0,4.0,1.0,1,,1,1040.0,G,Wallonia,Liège,Liège,19.3,0,,https://immovlan.be/en/detail/residence/for-sale/4550/nandrin/vbe33567,False,2663.0
Apartment,apartment,450000.0,120.0,2.0,2.0,Rue de Belle-Vue 36,1050,Elsene,50.8203122,4.3719368,,Normal,0,0,,Fully equipped,1,2.0,3.0,0,,1,,E,Brussels,Brussels Capital Region,Uccle,3.2,1,1.0,https://immovlan.be/en/detail/apartment/for-sale/1050/elsene/vbe36781,False,3750.0
House,residence,99000.0,90.0,3.0,1.0,,6060,Gilly,50.4240349,4.4785997,,To renovate,0,0,,Partially equipped,0,3.0,,1,,1,,G,Wallonia,Hainaut,Charleroi,2.8,0,,https://immovlan.be/en/detail/residence/for-sale/6060/gilly/vbe33105,False,1100.0
Apartment,apartment,195000.0,172.0,3.0,2.0,Chaussée Paul Houtart 237 0201,7110,Boussoit,50.4857,4.15908,,Normal,0,0,,,1,,,0,,1,,B,Wallonia,Hainaut,La Louvière,2.2,0,2.0,https://immovlan.be/en/detail/apartment/for-sale/7110/boussoit/rbv61516,False,1134.0
House,residence,449000.0,196.0,3.0,1.0,Hoeksken 72,9520,Sint Lievens Houtem,50.9198432,3.8465314,1963.0,Normal,0,0,,Super equipped,0,3.0,2.0,1,235.0,1,399.0,B,Flanders,East Flanders,Alost,13.7,0,,https://immovlan.be/en/detail/residence/for-sale/9520/sint-lievens-houtem/rbw16292,False,2291.0
House,residence,529000.0,259.0,4.0,1.0,Rue du Chêne du Bus 15,7700,Luingne,50.7389812,3.26082857,,,0,0,,,0,,,0,,0,1383.0,E,Wallonia,Hainaut,Mouscron,3.4,0,,https://immovlan.be/en/detail/residence/for-sale/7700/luingne/vbe36099,False,2042.0
Apartment,apartment,149000.0,104.0,2.0,1.0,Rue Kéramis 50 402,7100,La Louviere,50.4767824,4.1845623,,Normal,0,0,,Partially equipped,1,2.0,5.0,1,,1,,B,Wallonia,Hainaut,La Louvière,0.4,0,4.0,https://immovlan.be/en/detail/apartment/for-sale/7100/la-louviere/vbe31073,False,1433.0
House,residence,299000.0,134.0,3.0,1.0,Rue Badoux 13,5100,Naninne,50.41913355,4.91566432,1980.0,To renovate,0,1,1.0,,0,4.0,1.0,1,480.0,1,617.0,F,Wallonia,Namur,Namur,6.3,0,,https://immovlan.be/en/detail/residence/for-sale/5100/naninne/vbe28792,False,2231.0
House,residence,425000.0,,4.0,1.0,Longvilly 3 D,6600,Bastogne,50.02501089,5.83168899,2014.0,Normal,0,1,1.0,,0,4.0,1.0,0,,1,924.0,A,Wallonia,Luxembourg,Arlon,38.0,0,,https://immovlan.be/en/detail/residence/for-sale/6600/bastogne/vbe06725,False,
House,residence,139000.0,60.0,2.0,1.0,Vieux Mont 16,6940,Durbuy,50.3366318,5.4356842,,To renovate,0,0,,,0,3.0,2.0,1,,1,1226.0,G,Wallonia,Luxembourg,Liège,34.5,0,,https://immovlan.be/en/detail/residence/for-sale/6940/durbuy/vbe09275,False,2317.0
House,bungalow,30000.0,38.0,2.0,1.0,Domaine du Val d'Oise 123,6464,Baileux,49.9921588,4.3197548,1998.0,Normal,1,0,,Fully equipped,0,4.0,,1,162.0,0,200.0,,Wallonia,Hainaut,Charleroi,47.4,0,,https://immovlan.be/en/detail/bungalow/for-sale/6464/baileux/vbe19546,False,789.0
House,residence,595000.0,250.0,7.0,6.0,Lange Lobroekstraat 204,2060,Antwerp,51.23168,4.42771,,To renovate,0,0,,,0,2.0,,1,10.0,1,100.0,,Flanders,Antwerp,Antwerpen,2.2,0,,https://immovlan.be/en/detail/residence/for-sale/2060/antwerp/rbv23011,False,2380.0
Apartment,apartment,275000.0,94.0,3.0,1.0,Ruggeveldlaan 678 3L,2100,Deurne,51.226335,4.4795102,,,0,0,,,1,2.0,3.0,0,,1,,B,Flanders,Antwerp,Antwerpen,5.4,0,3.0,https://immovlan.be/en/detail/apartment/for-sale/2100/deurne/rbw13668,False,2926.0
House,residence,387334.0,190.0,3.0,1.0,,5377,Somme Leuze,50.3399089,5.3700431,,New,0,1,1.0,,0,4.0,,1,,0,806.0,A+,Wallonia,Namur,Liège,35.8,0,,https://immovlan.be/en/detail/residence/for-sale/5377/somme-leuze/vbd76812,False,2039.0
House,residence,139000.0,303.0,4.0,3.0,Rue du Vieux Moulin 121,5550,Bohan,49.8627049,4.8855549,1875.0,To renovate,0,0,,Partially equipped,0,3.0,3.0,1,50.0,1,181.0,D,Wallonia,Namur,Namur,67.2,0,,https://immovlan.be/en/detail/residence/for-sale/5550/bohan/vbe32793,False,459.0
Apartment,apartment,445000.0,121.0,3.0,2.0,Rue des Blancs Prés B33 B33,6700,Arlon,49.69201,5.807975,2025.0,New,0,0,,Super equipped,1,2.0,3.0,1,,1,,A,Wallonia,Luxembourg,Arlon,1.2,0,3.0,https://immovlan.be/en/detail/apartment/for-sale/6700/arlon/vbc72562,False,3678.0
House,residence,159000.0,88.0,3.0,1.0,,7712,Herseaux,50.722568,3.2326156,,To renovate,0,0,,Fully equipped,0,3.0,,1,110.0,1,235.0,F,Wallonia,Hainaut,Mouscron,2.7,0,,https://immovlan.be/en/detail/residence/for-sale/7712/herseaux/vbe36255,False,1807.0
House,residence,155000.0,148.0,3.0,1.0,Stijn Streuvelsstraat 1,9600,Ronse,50.7522302,3.6260615,,To renovate,0,1,1.0,,0,3.0,,1,,0,160.0,E,Flanders,East Flanders,Waregem,20.9,0,,https://immovlan.be/en/detail/residence/for-sale/9600/ronse/rbw18861,False,1047.0
Apartment,apartment,770000.0,228.0,4.0,1.0,,7700,Mouscron,50.7459126,3.219272,,New,0,1,1.0,Super equipped,1,2.0,4.0,0,,1,,A+,Wallonia,Hainaut,Mouscron,0.5,0,4.0,https://immovlan.be/en/detail/apartment/for-sale/7700/mouscron/vbb05632,False,3377.0
House,residence,145000.0,234.0,5.0,1.0,Wahisstraat 146,8930,Menen,50.8010611,3.117752,,To renovate,0,0,,Not equipped,0,3.0,,1,,1,165.0,F,Flanders,West Flanders,Mouscron,9.3,0,,https://immovlan.be/en/detail/residence/for-sale/8930/menen/rwc40499,False,620.0
Apartment,ground-floor,219000.0,124.0,3.0,1.0,Beukenlaan 44 a,3730,Hoeselt,50.8485287,5.481069,1985.0,,0,1,1.0,,0,,,1,,1,,C,Flanders,Limburg,Genk,13.1,0,,https://immovlan.be/en/detail/ground-floor/for-sale/3730/hoeselt/rbv73627,False,1766.0
House,residence,425000.0,185.0,5.0,1.0,Rue de Haute Tahée 19,6951,Bande,50.1621983,5.414308,2005.0,Normal,0,1,4.0,,0,4.0,,1,,1,1210.0,C,Wallonia,Luxembourg,Namur,51.5,0,,https://immovlan.be/en/detail/residence/for-sale/6951/bande/vbd47356,False,2297.0
Apartment,apartment,155000.0,50.0,1.0,1.0,Boulevard Emile Bockstael 335,1020,Laken,50.882922,4.3463644,,To renovate,0,0,,,0,2.0,,0,,1,,,Brussels,Brussels Capital Region,Bruxelles,3.6,0,,https://immovlan.be/en/detail/apartment/for-sale/1020/laken/vbd98516,False,3100.0
Apartment,apartment,155000.0,,,,Square du Bastion 2,1050,Elsene,50.8381814,4.3622909,1969.0,Excellent,0,0,,,1,,6.0,0,,0,,G,Brussels,Brussels Capital Region,Bruxelles,1.5,0,6.0,https://immovlan.be/en/detail/apartment/for-sale/1050/elsene/vbd90787,False,
House,residence,400000.0,172.0,3.0,2.0,Chemin du Prè Brouon 18,6640,Vaux Sur Sure,49.8826718,5.5498718,2026.0,New,0,1,,,0,3.0,1.0,1,,1,571.0,,Wallonia,Luxembourg,Arlon,29.3,0,,https://immovlan.be/en/detail/residence/for-sale/6640/vaux-sur-sure/vbe25412,False,2326.0
House,residence,209000.0,156.0,4.0,1.0,,7700,Mouscron,50.7459126,3.219272,1932.0,To renovate,0,1,1.0,,0,3.0,,0,,1,155.0,D,Wallonia,Hainaut,Mouscron,0.5,0,,https://immovlan.be/en/detail/residence/for-sale/7700/mouscron/vbe17027,False,1340.0
House,chalet,54000.0,45.0,2.0,,,5540,Hastiere,50.2127777,4.808074,1970.0,,0,0,,,0,4.0,,1,,1,250.0,,Wallonia,Namur,Namur,28.6,0,,https://immovlan.be/en/detail/chalet/for-sale/5540/hastiere/vbd07635,False,1200.0
Apartment,apartment,239549.0,76.0,1.0,1.0,Heistraat 2K,2440,Geel,51.1692603,4.9896809,,New,0,0,,,0,,6.0,1,,1,,,Flanders,Antwerp,Geel,0.6000000000000001,0,0.0,https://immovlan.be/en/detail/apartment/for-sale/2440/geel/rbw10017,False,3152.0
Apartment,apartment,275000.0,118.0,3.0,1.0,Zevenboomkensstraat 3 1,3570,Alken,50.8739894,5.3032453,1997.0,,0,1,1.0,,0,,1.0,0,,1,,C,Flanders,Limburg,Hasselt,6.6,0,1.0,https://immovlan.be/en/detail/apartment/for-sale/3570/alken/rbv83420,False,2331.0
Apartment,apartment,1245000.0,68.0,2.0,1.0,Ebbestraat 10 27,8300,Knokke,51.3561914,3.3046353,1985.0,Excellent,0,1,1.0,,1,2.0,7.0,1,,1,,A,Flanders,West Flanders,Knokke-Heist,1.6,1,2.0,https://immovlan.be/en/detail/apartment/for-sale/8300/knokke/rbv71812,False,18309.0
House,residence,975000.0,579.0,10.0,10.0,Rue de La Semois 16,6830,Les Hayons,49.8127852,5.1439102,1918.0,,1,1,1.0,,0,4.0,,1,,1,3621.0,C,Wallonia,Luxembourg,Arlon,50.4,0,,https://immovlan.be/en/detail/residence/for-sale/6830/les-hayons/vbe14838,False,1684.0
House,residence,448000.0,240.0,3.0,3.0,Des Paquis 13,6769,Gerouville,49.52788985,5.4779275,2009.0,Normal,0,1,1.0,,0,4.0,,1,4700.0,1,4700.0,C,Wallonia,Luxembourg,Arlon,29.9,0,,https://immovlan.be/en/detail/residence/for-sale/6769/gerouville/vbe09759,False,1867.0
House,bungalow,415000.0,187.0,2.0,1.0,Rue de la Calamine 37,4850,Moresnet,50.7267211,6.0008972,1983.0,,0,1,,,0,,,1,565.0,1,,,Wallonia,Liège,Aachen,8.0,0,,https://immovlan.be/en/detail/bungalow/for-sale/4850/moresnet/vbb74319,False,2219.0
House,villa,675000.0,189.0,3.0,1.0,Rue Pierre Henvard 111 B,4053,Embourg,50.5924052,5.59728354,2000.0,,0,1,1.0,,0,4.0,2.0,1,,1,1003.0,B,Wallonia,Liège,Liège,4.6,0,,https://immovlan.be/en/detail/villa/for-sale/4053/embourg/vbe32248,False,3571.0
House,residence,600000.0,360.0,7.0,2.0,Rue Lucien Dupagne 25,4520,Wanze,50.5437094,5.2292733,,Normal,0,1,1.0,Fully equipped,0,4.0,,1,2500.0,1,4258.0,C,Wallonia,Liège,Liège,26.6,0,,https://immovlan.be/en/detail/residence/for-sale/4520/wanze/vbe28058,False,1667.0
House,mixed-building,545000.0,1050.0,4.0,,Grijspeerdstraat 52,8830,Hooglede,51.012904,3.0788619,,To renovate,0,1,10.0,,0,4.0,3.0,0,,1,2006.0,,Flanders,West Flanders,Roeselare,8.1,0,,https://immovlan.be/en/detail/mixed-building/for-sale/8830/hooglede/rbw16925,False,519.0
Apartment,apartment,321000.0,92.0,3.0,1.0,Celine Dangottestraat 23/25,9041,Oostakker,51.0906656,3.7607501,2025.0,New,0,0,,Super equipped,1,,3.0,0,,1,,,Flanders,East Flanders,Gent,5.1,0,2.0,https://immovlan.be/en/detail/apartment/for-sale/9041/oostakker/rbw19663,False,3489.0
House,residence,421654.0,187.0,3.0,2.0,,7543,Mourcourt,50.6531232,3.4442619,,New,0,1,1.0,,0,4.0,,1,,0,1935.0,A+,Wallonia,Hainaut,Tournai,6.5,0,,https://immovlan.be/en/detail/residence/for-sale/7543/mourcourt/vbd98577,False,2255.0
House,residence,349000.0,393.0,5.0,2.0,Rue de Jemeppe 11-13,6950,Nassogne,50.1762655,5.3431278,,To renovate,0,1,1.0,,0,4.0,,1,,0,1952.0,G,Wallonia,Luxembourg,Namur,46.7,0,,https://immovlan.be/en/detail/residence/for-sale/6950/nassogne/vbe34956,False,888.0
House,residence,413200.0,189.0,3.0,1.0,,6142,Leernes,50.39821,4.33217,,New,0,1,1.0,,0,4.0,,0,,0,910.0,A+,Wallonia,Hainaut,Charleroi,8.1,0,,https://immovlan.be/en/detail/residence/for-sale/6142/leernes/vbe33512,False,2186.0
House,residence,179000.0,95.0,3.0,1.0,Moeskroenstraat 26,8930,Menen,50.7875452,3.1285022,,Normal,0,1,,Partially equipped,0,2.0,,0,,1,103.0,C,Flanders,West Flanders,Mouscron,7.7,0,,https://immovlan.be/en/detail/residence/for-sale/8930/menen/rwc41620,False,1884.0
Apartment,apartment,180000.0,55.0,1.0,,Avenue de la Porte de Hal 68,1060,Sint Gillis,50.8324986,4.3442137,1933.0,,0,0,,,0,2.0,4.0,0,,0,,D,Brussels,Brussels Capital Region,Bruxelles,2.0,0,1.0,https://immovlan.be/en/detail/apartment/for-sale/1060/sint-gillis/vbd56459,False,3273.0
House,residence,155000.0,166.0,3.0,1.0,Rue de France 21,5575,Gedinne,49.96009045,4.9275388,1955.0,To renovate,0,0,,,0,3.0,3.0,1,150.0,0,261.0,E,Wallonia,Namur,Namur,56.5,0,,https://immovlan.be/en/detail/residence/for-sale/5575/gedinne/vbd90268,False,934.0
House,residence,185000.0,100.0,3.0,1.0,Route de Bomal 11,6960,Manhay,50.2924239,5.661597,1974.0,To renovate,0,1,,,0,3.0,2.0,1,600.0,1,762.0,B,Wallonia,Luxembourg,Verviers,35.9,0,,https://immovlan.be/en/detail/residence/for-sale/6960/manhay/vbe01323,False,1850.0
House,residence,415066.0,242.0,4.0,,Langesteeg,3700,Berg,50.80358154,5.34817304,2026.0,New,0,1,1.0,,0,3.0,2.0,1,,1,297.0,,Flanders,Limburg,Sint-Truiden,11.4,0,,https://immovlan.be/en/detail/residence/for-sale/3700/berg/rbw16033,False,1715.0
House,residence,575000.0,220.0,4.0,2.0,Prins van Oranjestraat 72,2930,Brasschaat,51.2956499,4.5045383,1955.0,Excellent,0,1,1.0,,0,,,1,,0,300.0,C,Flanders,Antwerp,Antwerpen,11.1,0,,https://immovlan.be/en/detail/residence/for-sale/2930/brasschaat/rbv83428,False,2614.0
Apartment,apartment,185000.0,80.0,2.0,1.0,,5500,Dinant,50.2340362,4.9169434,1965.0,,0,1,1.0,,1,,1.0,0,,1,,B,Wallonia,Namur,Namur,26.1,0,1.0,https://immovlan.be/en/detail/apartment/for-sale/5500/dinant/vbe22237,False,2312.0
House,mixed-building,99000.0,61.0,2.0,1.0,Rue Joseph Heusdens,4460,Grace Hollogne,50.6408881,5.5053839,,To renovate,0,1,1.0,Partially equipped,0,3.0,1.0,0,,0,105.0,G,Wallonia,Liège,Liège,5.3,0,,https://immovlan.be/en/detail/mixed-building/for-sale/4460/grace-hollogne/vbd62018,False,1623.0
House,residence,299500.0,141.0,2.0,1.0,Sittardstr. 16,3840,Bommershoven,50.8122711,5.3417263,1956.0,,0,0,,,0,3.0,4.0,1,,1,1118.0,D,Flanders,Limburg,Sint-Truiden,10.8,0,,https://immovlan.be/en/detail/residence/for-sale/3840/bommershoven/rbv95691,False,2124.0
House,residence,485000.0,217.0,4.0,1.0,Korpse straat 59,3540,Herk De Stad,50.9260797,5.1353767,1983.0,Normal,0,1,1.0,Super equipped,0,4.0,2.0,1,2400.0,1,2986.0,D,Flanders,Limburg,Sint-Truiden,12.6,0,,https://immovlan.be/en/detail/residence/for-sale/3540/herk-de-stad/rbw23830,False,2235.0
Apartment,apartment,299000.0,121.0,2.0,1.0,Sint-Bavostraat 1 2.03,8710,Wielsbeke,50.9098666,3.391071,2023.0,New,0,0,,Super equipped,1,,3.0,0,,1,,A,Flanders,West Flanders,Waregem,3.2,0,,https://immovlan.be/en/detail/apartment/for-sale/8710/wielsbeke/rbw24786,False,2471.0
House,residence,980000.0,314.0,5.0,,,1030,Schaarbeek,50.86744,4.37727,,Normal,0,0,,,0,,,0,,0,,F,Brussels,Brussels Capital Region,Bruxelles,2.6,0,,https://immovlan.be/en/detail/residence/for-sale/1030/schaarbeek/vbe32989,False,3121.0
House,residence,398500.0,121.0,3.0,1.0,Cooppallaan 30 A,9230,Wetteren,51.0102389,3.8770316,2024.0,New,0,0,,Super equipped,0,3.0,1.0,1,76.0,1,209.0,,Flanders,East Flanders,Gent,12.2,0,,https://immovlan.be/en/detail/residence/for-sale/9230/wetteren/rbw26115,False,3293.0
House,residence,369000.0,191.0,3.0,1.0,,5570,Beauraing,50.1003926,4.9059609,1977.0,To renovate,0,1,2.0,Fully equipped,0,4.0,2.0,1,5324.0,1,5624.0,,Wallonia,Namur,Namur,40.8,0,,https://immovlan.be/en/detail/residence/for-sale/5570/beauraing/vbd84184,False,1932.0
House,chalet,60000.0,38.0,2.0,,Rue du Village 2 10,5542,Blaimont,50.1885569,4.82942845,,Normal,1,0,,,0,4.0,1.0,0,,1,179.0,,Wallonia,Namur,Namur,31.1,0,,https://immovlan.be/en/detail/chalet/for-sale/5542/blaimont/vbe30596,False,1579.0
House,residence,1290000.0,515.0,7.0,5.0,,7500,Tournai,50.6056059,3.3880367,,Excellent,0,1,1.0,Fully equipped,0,4.0,,1,978.0,1,978.0,B,Wallonia,Hainaut,Tournai,0.1,0,,https://immovlan.be/en/detail/residence/for-sale/7500/tournai/vbd72059,False,2505.0
House,residence,532000.0,238.0,5.0,2.0,Hoogstraat 1A,2620,Hemiksem,51.1338861,4.3348103,2025.0,,0,1,1.0,Super equipped,0,2.0,2.0,1,100.0,1,217.0,,Flanders,Antwerp,Antwerpen,10.6,0,,https://immovlan.be/en/detail/residence/for-sale/2620/hemiksem/rbu48931,False,2235.0
House,residence,160000.0,146.0,4.0,1.0,Rue de l'Impératrice 145,6927,Tellin,50.07962228,5.21573907,1874.0,,0,1,1.0,,0,3.0,,0,,1,160.0,F,Wallonia,Luxembourg,Namur,49.7,0,,https://immovlan.be/en/detail/residence/for-sale/6927/tellin/vbe31850,False,1096.0
House,villa,798000.0,240.0,5.0,1.0,Meerbeke 4,9940,Evergem,51.129536,3.7021048,1973.0,Excellent,0,1,,,0,4.0,2.0,1,,1,3296.0,C,Flanders,East Flanders,Gent,8.4,0,,https://immovlan.be/en/detail/villa/for-sale/9940/evergem/rbv82242,False,3325.0
House,residence,417000.0,147.0,3.0,1.0,,6150,Anderlues,50.4,4.2666667,,New,0,1,1.0,,0,4.0,,1,,0,1507.0,A+,Wallonia,Hainaut,La Louvière,10.4,0,,https://immovlan.be/en/detail/residence/for-sale/6150/anderlues/vbe24845,False,2837.0
Apartment,apartment,205500.0,67.0,1.0,1.0,Oude Bosuilbaan 43,2100,Deurne,51.23357,4.469621,2026.0,New,0,0,,,1,3.0,5.0,0,,1,,,Flanders,Antwerp,Antwerpen,4.9,0,1.0,https://immovlan.be/en/detail/apartment/for-sale/2100/deurne/rbw12283,False,3067.0
House,residence,339000.0,170.0,3.0,2.0,Rue de Glaireuse 118,6890,Libin,49.9705439,5.2573444,1998.0,Excellent,0,1,1.0,Super equipped,0,4.0,2.0,1,1250.0,1,1925.0,C,Wallonia,Luxembourg,Arlon,51.3,0,,https://immovlan.be/en/detail/residence/for-sale/6890/libin/vbe32038,False,1994.0
House,mixed-building,675000.0,270.0,4.0,4.0,Rue Auguste Lambiotte 57,1030,Schaarbeek,50.8559045,4.3890504,1910.0,To renovate,0,0,,Fully equipped,0,2.0,3.0,0,,1,105.0,G,Brussels,Brussels Capital Region,Bruxelles,2.7,0,,https://immovlan.be/en/detail/mixed-building/for-sale/1030/schaarbeek/vbe27506,False,2500.0
House,residence,148000.0,125.0,3.0,1.0,Wijk Kalberg 11,8780,Oostrozebeke,50.9263518,3.3480778,,Normal,0,0,,,0,,,1,200.0,1,262.0,F,Flanders,West Flanders,Waregem,6.7,0,,https://immovlan.be/en/detail/residence/for-sale/8780/oostrozebeke/rbv56291,False,1184.0
House,villa,629000.0,252.0,3.0,1.0,sint-jacobstraat 2,2940,Hoevenen,51.3222467,4.3745557,1900.0,Normal,0,1,1.0,,0,4.0,,1,,1,1270.0,C,Flanders,Antwerp,Antwerpen,11.6,0,,https://immovlan.be/en/detail/villa/for-sale/2940/hoevenen/rbw16077,False,2496.0
House,residence,35000.0,127.0,3.0,1.0,Lenoble 3,6470,Grandrieu,50.2004025,4.1728349,1850.0,To renovate,0,0,,,0,2.0,,0,,0,,G,Wallonia,Hainaut,Charleroi,30.3,0,,https://immovlan.be/en/detail/residence/for-sale/6470/grandrieu/vwd17501,False,276.0
House,residence,299000.0,171.0,3.0,,Maastrichterstraat 6,3500,Hasselt,50.9292198,5.3384397,1850.0,,0,0,,,0,2.0,4.0,0,,0,90.0,D,Flanders,Limburg,Hasselt,0.4,0,,https://immovlan.be/en/detail/residence/for-sale/3500/hasselt/rbw11759,False,1749.0
Apartment,apartment,185000.0,85.0,2.0,1.0,Av. Marius Renard 27,1070,Anderlecht,50.8273546,4.2864259,,Normal,0,0,,,1,4.0,27.0,0,,1,,C,Brussels,Brussels Capital Region,Uccle,4.6,1,1.0,https://immovlan.be/en/detail/apartment/for-sale/1070/anderlecht/vbe26858,False,2176.0
House,cottage,515000.0,230.0,5.0,2.0,Wavreumont 5,4970,Stavelot,50.40325111,5.98124082,,Normal,0,1,1.0,,0,4.0,2.0,1,,1,6495.0,E,Wallonia,Liège,Verviers,22.3,0,,https://immovlan.be/en/detail/cottage/for-sale/4970/stavelot/vbc85949,False,2239.0
House,residence,670000.0,210.0,4.0,1.0,Dahlialaan 6,9080,Lochristi,51.0902289,3.8059651,1991.0,,0,1,1.0,,0,4.0,,1,600.0,1,849.0,E,Flanders,East Flanders,Gent,7.4,0,,https://immovlan.be/en/detail/residence/for-sale/9080/lochristi/rbw09164,False,3190.0
House,residence,998000.0,240.0,4.0,2.0,Onderbos 10,9700,Oudenaarde,50.8179236,3.5889439,1990.0,Normal,0,1,2.0,Super equipped,1,4.0,,1,,1,33800.0,D,Flanders,East Flanders,Waregem,14.0,0,,https://immovlan.be/en/detail/residence/for-sale/9700/oudenaarde/rbv96480,False,4158.0
House,residence,179900.0,136.0,3.0,1.0,,6150,Anderlues,50.4,4.2666667,2025.0,,0,1,1.0,,0,2.0,,1,,0,273.0,A,Wallonia,Hainaut,La Louvière,10.4,0,,https://immovlan.be/en/detail/residence/for-sale/6150/anderlues/vbe36451,False,1323.0
House,residence,405000.0,372.0,4.0,2.0,Jekerstraat 48,3700,Tongeren,50.7773586,5.4628086,1850.0,,0,0,,,0,,,0,,0,267.0,C,Flanders,Limburg,Maastricht,18.0,0,,https://immovlan.be/en/detail/residence/for-sale/3700/tongeren/rbw09136,False,1089.0
House,residence,725000.0,221.0,6.0,1.0,,1170,Watermaal Bosvoorde,50.800919,4.414715,1934.0,To renovate,0,1,1.0,,0,2.0,3.0,0,,1,140.0,G,Brussels,Brussels Capital Region,Bruxelles,7.1,0,,https://immovlan.be/en/detail/residence/for-sale/1170/watermaal-bosvoorde/vbe25292,False,3281.0
Apartment,apartment,199000.0,90.0,2.0,1.0,Morckhovenlei 39,2140,Antwerp,51.2116383,4.4546374,1962.0,Normal,0,1,,Fully equipped,0,2.0,5.0,0,,1,,D,Flanders,Antwerp,Antwerpen,3.7,0,1.0,https://immovlan.be/en/detail/apartment/for-sale/2140/antwerp/rbv88174,False,2211.0
Apartment,apartment,99000.0,75.0,2.0,1.0,Avenue Meurée 68 - 2ième étage gauche 68 2ième étag,6001,Marcinelle,50.4016296,4.4457159,1952.0,Normal,0,0,,Partially equipped,1,2.0,4.0,0,,1,,C,Wallonia,Hainaut,Charleroi,1.0,0,2.0,https://immovlan.be/en/detail/apartment/for-sale/6001/marcinelle/vwd17363,False,1320.0
Apartment,apartment,259000.0,119.0,2.0,1.0,Rue Saint-Guidon 81,1070,Anderlecht,50.835947,4.3013959,,Normal,0,0,,Fully equipped,0,2.0,2.0,0,,1,,G,Brussels,Brussels Capital Region,Bruxelles,3.9,0,2.0,https://immovlan.be/en/detail/apartment/for-sale/1070/anderlecht/vbe34793,False,2176.0
House,villa,349000.0,303.0,6.0,1.0,Rue du Parc 3,6690,Vielsalm,50.2843404,5.9173138,,To renovate,0,1,1.0,Fully equipped,0,4.0,3.0,1,280.0,1,623.0,E,Wallonia,Luxembourg,Verviers,34.1,0,,https://immovlan.be/en/detail/villa/for-sale/6690/vielsalm/vbe25394,False,1152.0
House,residence,531000.0,202.0,4.0,2.0,Brusselsesteenweg 126,9230,Wetteren,50.9886019,3.8353902,2026.0,New,0,0,,Super equipped,0,3.0,2.0,1,,1,554.0,,Flanders,East Flanders,Gent,11.0,0,,https://immovlan.be/en/detail/residence/for-sale/9230/wetteren/rbw15961,False,2629.0
House,residence,330000.0,238.0,4.0,1.0,Rue de la Montagne 3 A,5500,Dinant,50.23319,4.89233,,New,0,1,,,0,,,0,,1,,,Wallonia,Namur,Namur,26.0,0,,https://immovlan.be/en/detail/residence/for-sale/5500/dinant/vbe14201,False,1387.0
Apartment,apartment,249000.0,78.0,1.0,1.0,Vooruitgangsstraat 119 0002,2830,Willebroek,51.05705,4.358209,,,0,1,,,0,,3.0,0,,1,,,Flanders,Antwerp,Malines,9.0,0,,https://immovlan.be/en/detail/apartment/for-sale/2830/willebroek/rbw01460,False,3192.0
House,residence,358900.0,129.0,4.0,1.0,Heidemolenbaan 24,2390,Westmalle,51.30029,4.676566,1968.0,Normal,0,0,,,0,3.0,,1,200.0,1,440.0,C,Flanders,Antwerp,Turnhout,18.8,0,,https://immovlan.be/en/detail/residence/for-sale/2390/westmalle/rbw19803,False,2782.0
Apartment,studio,189000.0,35.0,1.0,1.0,Dienstweg Havengeul 22 B209,8620,Nieuwpoort,51.1448633,2.7330139,1978.0,,1,1,1.0,,1,,,0,,1,,B,Flanders,West Flanders,Ostende,15.7,0,2.0,https://immovlan.be/en/detail/studio/for-sale/8620/nieuwpoort/rbv86643,False,5400.0
Apartment,apartment,164000.0,80.0,3.0,1.0,Wagenstraat 14,8400,Oostende,51.2190708,2.9085037,1935.0,Excellent,0,0,,,0,,3.0,0,,0,,D,Flanders,West Flanders,Ostende,1.5,0,2.0,https://immovlan.be/en/detail/apartment/for-sale/8400/oostende/rbv59868,False,2050.0
Apartment,apartment,109000.0,34.0,1.0,1.0,Bremstraat 23 3,8420,De Haan,51.2532417,3.0001186,1988.0,,0,0,,,0,,,1,,0,,,Flanders,West Flanders,Ostende,6.5,0,0.0,https://immovlan.be/en/detail/apartment/for-sale/8420/de-haan/rbv82692,False,3206.0
House,residence,550000.0,336.0,4.0,2.0,Sint-Niklaasstraat 11,8000,Brugge,51.2073484,3.2245777,,To renovate,0,1,1.0,,0,,,0,,0,167.0,E,Flanders,West Flanders,Bruges,0.2,0,,https://immovlan.be/en/detail/residence/for-sale/8000/brugge/rbv16686,False,1637.0
Apartment,apartment,367500.0,89.0,2.0,1.0,Avenue de Selliers de Moranville 31,1082,Berchem Sainte Agathe,50.868601,4.2911222,2023.0,New,0,0,,Super equipped,1,3.0,3.0,0,,1,,B,Brussels,Brussels Capital Region,Bruxelles,4.7,0,2.0,https://immovlan.be/en/detail/apartment/for-sale/1082/berchem-sainte-agathe/vbe35507,False,4129.0
House,residence,435000.0,206.0,4.0,1.0,Vlutterstraat 29,3920,Lommel,51.2227893,5.308234,2008.0,Normal,0,0,,Fully equipped,0,,,1,,1,383.0,B,Flanders,Limburg,Geel,23.0,0,,https://immovlan.be/en/detail/residence/for-sale/3920/lommel/rwc42677,False,2112.0
House,residence,235000.0,208.0,2.0,2.0,Meulebekestraat 10,8740,Pittem,50.9918507,3.2635139,1955.0,,0,1,1.0,,0,2.0,2.0,0,,0,341.0,F,Flanders,West Flanders,Roeselare,11.2,0,,https://immovlan.be/en/detail/residence/for-sale/8740/pittem/rbw20299,False,1130.0
Apartment,apartment,239000.0,78.0,2.0,1.0,Berlaarbaan 414A 3,2861,Onze Lieve Vrouw Waver,51.07185,4.573826,1997.0,Normal,0,1,1.0,,1,,2.0,0,,1,,C,Flanders,Antwerp,Malines,8.5,0,1.0,https://immovlan.be/en/detail/apartment/for-sale/2861/onze-lieve-vrouw-waver/rbw18519,False,3064.0
House,residence,260000.0,225.0,4.0,2.0,Rue de Bridoux 72,6769,Meix Devant Virton,49.5951053,5.5091003,1918.0,Excellent,0,0,,Partially equipped,0,2.0,2.0,0,,1,170.0,C,Wallonia,Luxembourg,Arlon,24.2,0,,https://immovlan.be/en/detail/residence/for-sale/6769/meix-devant-virton/vbc93438,False,1156.0
House,mansion,1350000.0,3000.0,30.0,4.0,,7540,Kain,50.6379973,3.3788194,,Normal,0,0,,Fully equipped,0,4.0,,1,14229.0,1,14229.0,E,Wallonia,Hainaut,Tournai,3.6,0,,https://immovlan.be/en/detail/mansion/for-sale/7540/kain/vbd72064,False,450.0
Apartment,apartment,129000.0,59.0,1.0,1.0,Rue Alfred Magis 2 21,4020,Liege,50.6366697,5.5818026,1962.0,Normal,0,0,,Fully equipped,1,2.0,1.0,0,,1,,B,Wallonia,Liège,Liège,0.5,0,,https://immovlan.be/en/detail/apartment/for-sale/4020/liege/vbe36042,False,2186.0
Apartment,apartment,179000.0,83.0,1.0,1.0,Duifhuisstraat 3 4,2300,Turnhout,51.31524,4.949242,1979.0,To renovate,0,0,,,1,3.0,3.0,0,,1,,D,Flanders,Antwerp,Turnhout,0.9,0,3.0,https://immovlan.be/en/detail/apartment/for-sale/2300/turnhout/rbw24876,False,2157.0
Apartment,duplex,220000.0,,3.0,1.0,Rue de l'Etang 3 2,7134,Epinois,50.4047757,4.2090011,,Excellent,0,1,1.0,Super equipped,0,2.0,1.0,1,,1,,B,Wallonia,Hainaut,La Louvière,8.4,0,1.0,https://immovlan.be/en/detail/duplex/for-sale/7134/epinois/vbe35013,False,
House,bungalow,395000.0,,3.0,1.0,Rue de Housse 48,4600,Richelle,50.7128631,5.7002854,,,0,1,1.0,,0,4.0,1.0,1,601.0,1,708.0,G,Wallonia,Liège,Liège,12.3,0,,https://immovlan.be/en/detail/bungalow/for-sale/4600/richelle/vbe36654,False,
House,residence,495000.0,158.0,3.0,1.0,Ganzenweg 82,2110,Wijnegem,51.2297876,4.5070936,1960.0,Normal,0,0,,Partially equipped,0,4.0,,1,800.0,0,1064.0,D,Flanders,Antwerp,Antwerpen,7.4,0,,https://immovlan.be/en/detail/residence/for-sale/2110/wijnegem/rwc42762,False,3133.0
Apartment,apartment,275000.0,61.0,1.0,1.0,Antwerpsestraat 64,2640,Mortsel,51.17222,4.447244,2012.0,Normal,0,0,,,1,2.0,,1,,1,,A,Flanders,Antwerp,Antwerpen,6.1,0,,https://immovlan.be/en/detail/apartment/for-sale/2640/mortsel/rbv96517,False,4508.0
House,residence,295000.0,250.0,5.0,3.0,Petit Barvaux 35,6940,Barvaux Sur Ourthe,50.3538599,5.4934541,,Normal,0,0,,Partially equipped,0,3.0,3.0,0,,1,320.0,E,Wallonia,Luxembourg,Liège,31.6,0,,https://immovlan.be/en/detail/residence/for-sale/6940/barvaux-sur-ourthe/vbe14073,False,1180.0
House,residence,450000.0,164.0,2.0,2.0,Rue de la Principauté 11 B,5377,Somme Leuze,50.33665205,5.36483234,,,0,0,,,0,3.0,,1,,1,795.0,C,Wallonia,Namur,Liège,36.2,0,,https://immovlan.be/en/detail/residence/for-sale/5377/somme-leuze/vbd18405,False,2744.0
House,residence,444159.0,148.0,4.0,1.0,,5170,Lesve,50.37686,4.77791,,New,0,0,,,0,4.0,,1,,0,1000.0,A+,Wallonia,Namur,Namur,11.9,0,,https://immovlan.be/en/detail/residence/for-sale/5170/lesve/vbe10254,False,3001.0
House,residence,499000.0,310.0,4.0,2.0,Rue Bourgambray 141,7530,Gaurain Ramecroix,50.602471,3.4582202,1984.0,Excellent,0,0,,Fully equipped,0,4.0,1.0,1,,0,1193.0,B,Wallonia,Hainaut,Tournai,4.9,0,,https://immovlan.be/en/detail/residence/for-sale/7530/gaurain-ramecroix/rbv63374,False,1610.0
House,residence,160000.0,91.0,2.0,1.0,Rue d'Andrimont 45,4820,Dison,50.6078339,5.8593528,1850.0,Normal,0,0,,,0,2.0,2.0,0,,1,70.0,D,Wallonia,Liège,Verviers,2.1,0,,https://immovlan.be/en/detail/residence/for-sale/4820/dison/vbe36596,False,1758.0
Apartment,apartment,95000.0,80.0,2.0,1.0,,5650,Walcourt,,,,Normal,0,1,1.0,,0,2.0,2.0,0,,1,,C,Wallonia,Namur,,,,1.0,https://immovlan.be/en/detail/apartment/for-sale/5650/walcourt/vbe30875,False,1188.0
House,residence,319000.0,116.0,2.0,1.0,Koolmeesstraat 9,2400,Mol,51.18957,5.07996,1988.0,Normal,0,1,1.0,,0,4.0,,1,,1,451.0,E,Flanders,Antwerp,Geel,6.8,0,,https://immovlan.be/en/detail/residence/for-sale/2400/mol/rbw23744,False,2750.0
House,residence,1895000.0,800.0,9.0,6.0,,6680,Sainte Ode,50.0199719,5.5480905,2001.0,Excellent,1,1,2.0,Fully equipped,0,4.0,3.0,1,,1,7600.0,C,Wallonia,Luxembourg,Arlon,42.1,0,,https://immovlan.be/en/detail/residence/for-sale/6680/sainte-ode/rbv31030,False,2369.0
Apartment,apartment,199500.0,63.0,1.0,1.0,Duinbergenstraat 11 GV01,8670,Koksijde,51.1197258,2.6368016,1990.0,Fully renovated,0,0,,,0,,2.0,0,,0,,D,Flanders,West Flanders,De Panne,3.8,1,,https://immovlan.be/en/detail/apartment/for-sale/8670/koksijde/rbv36568,False,3167.0
Apartment,apartment,189000.0,38.0,1.0,1.0,Goedeluchtstraat 18 0101,8420,Wenduine,51.2984569,3.0807946,1875.0,Fully renovated,0,0,,,0,,2.0,0,,1,,A,Flanders,West Flanders,Bruges,14.1,0,1.0,https://immovlan.be/en/detail/apartment/for-sale/8420/wenduine/rbv73804,False,4974.0
House,residence,80000.0,,2.0,,Rue Jean Jaurès (DY) 215,6020,Dampremy,50.4209014,4.4256483,,,0,0,,,0,,,0,,0,,F,Wallonia,Hainaut,Charleroi,1.8,0,,https://immovlan.be/en/detail/residence/for-sale/6020/dampremy/vbe30391,False,
Apartment,penthouse,1225500.0,,,,Chauss?e de Waterloo 851,1180,Ukkel,50.81146,4.3536,,New,0,0,,,0,2.0,,0,,0,,,Brussels,Brussels Capital Region,Uccle,1.6,1,4.0,https://immovlan.be/en/detail/penthouse/for-sale/1180/ukkel/rbw17393,False,
House,residence,457301.0,187.0,3.0,2.0,,4550,Nandrin,50.507161,5.4198582,,New,0,1,1.0,,0,4.0,,1,,0,1500.0,A+,Wallonia,Liège,Liège,17.9,0,,https://immovlan.be/en/detail/residence/for-sale/4550/nandrin/vbd39240,False,2445.0
House,residence,415000.0,184.0,3.0,1.0,Rue de Boudjon 14,5570,Wancennes,50.091743,4.9616119,2026.0,Excellent,0,1,,Fully equipped,0,4.0,,1,,1,,A,Wallonia,Namur,Namur,42.2,0,,https://immovlan.be/en/detail/residence/for-sale/5570/wancennes/rwc41897,False,2255.0
Apartment,apartment,535000.0,166.0,3.0,2.0,,7500,Tournai,50.6056059,3.3880367,2019.0,New,0,1,,Fully equipped,1,,,0,,1,,A,Wallonia,Hainaut,Tournai,0.1,0,5.0,https://immovlan.be/en/detail/apartment/for-sale/7500/tournai/vbc54717,False,3223.0
House,residence,175000.0,,4.0,2.0,Neremweg 81,3700,Tongeren,50.77721,5.47305,1874.0,To renovate,0,1,,,0,,,0,,0,200.0,E,Flanders,Limburg,Maastricht,17.4,0,,https://immovlan.be/en/detail/residence/for-sale/3700/tongeren/rbu24811,False,
House,residence,109000.0,75.0,2.0,1.0,Du Noir Dieu 32,6060,Gilly,50.4315417,4.487504,,Normal,0,0,,Fully equipped,0,2.0,3.0,1,70.0,0,,D,Wallonia,Hainaut,Charleroi,3.8,0,,https://immovlan.be/en/detail/residence/for-sale/6060/gilly/vbe32499,False,1453.0
House,residence,169000.0,160.0,4.0,1.0,Broeke 30,9600,Ronse,50.7544416,3.5945386,,To renovate,0,0,,Fully equipped,0,2.0,3.0,1,120.0,0,219.0,C,Flanders,East Flanders,Waregem,19.3,0,,https://immovlan.be/en/detail/residence/for-sale/9600/ronse/rbv75475,False,1056.0
House,residence,249000.0,120.0,5.0,1.0,Koolmijnlaan 30,3530,Houthalen Helchteren,51.0220564,5.3768992,1930.0,To renovate,0,1,1.0,Fully equipped,0,4.0,2.0,1,,1,397.0,E,Flanders,Limburg,Hasselt,10.6,0,,https://immovlan.be/en/detail/residence/for-sale/3530/houthalen-helchteren/rbw19031,False,2075.0
Apartment,apartment,170000.0,45.0,1.0,,,1210,Sint Joost Ten Node,50.8537715,4.3704657000000005,,,0,0,,,0,2.0,,0,,0,,F,Brussels,Brussels Capital Region,Bruxelles,1.4,0,3.0,https://immovlan.be/en/detail/apartment/for-sale/1210/sint-joost-ten-node/vbe30483,False,3778.0
House,residence,519900.0,195.0,3.0,1.0,Aardekensweg 15,2390,Malle,51.30922,4.748494,1987.0,Normal,0,0,,,0,4.0,,1,500.0,0,788.0,C,Flanders,Antwerp,Turnhout,13.7,0,,https://immovlan.be/en/detail/residence/for-sale/2390/malle/rbw18264,False,2666.0
House,residence,89000.0,45.0,1.0,1.0,Allée des Hiboux 23,5540,Hastiere,50.2145664,4.7758722,,Normal,0,0,,Fully equipped,0,,,1,495.0,1,,,Wallonia,Namur,Namur,28.8,0,,https://immovlan.be/en/detail/residence/for-sale/5540/hastiere/vbc35729,False,1978.0
House,residence,383825.0,147.0,4.0,1.0,,5170,Lesve,50.37686,4.77791,,New,0,0,,,0,4.0,,1,,0,2056.0,A+,Wallonia,Namur,Namur,11.9,0,,https://immovlan.be/en/detail/residence/for-sale/5170/lesve/vbe24649,False,2611.0
House,residence,545000.0,152.0,4.0,2.0,Albertlaan 21,8300,Knokke Heist,51.3418237,3.2902286,1910.0,,0,0,,,0,2.0,,1,,0,120.0,E,Flanders,West Flanders,Knokke-Heist,1.0,1,,https://immovlan.be/en/detail/residence/for-sale/8300/knokke-heist/rbv84555,False,3586.0
Apartment,apartment,249000.0,66.0,2.0,1.0,Dr.-Van de Perrestraat 249 B,2440,Geel,51.17891,4.985965,2008.0,Normal,0,0,,,0,2.0,,0,,1,,A,Flanders,Antwerp,Geel,1.7000000000000002,0,1.0,https://immovlan.be/en/detail/apartment/for-sale/2440/geel/rbw23739,False,3773.0
Apartment,apartment,685000.0,190.0,3.0,2.0,Dennendreef,2350,Vosselaar,51.31097,4.876165,2024.0,New,0,0,,,1,3.0,2.0,0,,1,,,Flanders,Antwerp,Turnhout,4.9,0,2.0,https://immovlan.be/en/detail/apartment/for-sale/2350/vosselaar/rbv90260,False,3605.0
House,residence,849000.0,,5.0,2.0,Heidehuizen 53,2400,Mol,51.1724971,5.1133561,,,0,0,,,0,4.0,,1,,1,1574.0,,Flanders,Antwerp,Geel,8.6,0,,https://immovlan.be/en/detail/residence/for-sale/2400/mol/rbw04162,False,
House,residence,370000.0,224.0,4.0,2.0,Steenakkerstraat 53,3590,Diepenbeek,50.92807,5.449694,2025.0,New,0,0,,,0,3.0,,0,,0,369.0,,Flanders,Limburg,Genk,5.4,0,,https://immovlan.be/en/detail/residence/for-sale/3590/diepenbeek/rbw17475,False,1652.0
Apartment,penthouse,577686.0,137.0,2.0,2.0,Frepert 104-106,4730,Hauset,50.71255,6.07999,2025.0,,0,0,,,0,,,0,,1,,,Wallonia,Liège,Aachen,7.0,0,,https://immovlan.be/en/detail/penthouse/for-sale/4730/hauset/vbd21156,False,4217.0
Apartment,apartment,169000.0,67.0,1.0,1.0,Sint-Sebastiaanslaan 5A 2,8500,Kortrijk,50.82245,3.261168,,Normal,0,0,,,0,,,0,,0,,E,Flanders,West Flanders,Kortrijk,0.7000000000000001,0,,https://immovlan.be/en/detail/apartment/for-sale/8500/kortrijk/rbv80296,False,2522.0
House,residence,325000.0,205.0,4.0,2.0,Rue de Mayavaux 66,6870,Saint Hubert,50.0113673,5.3849958,1972.0,Normal,0,1,1.0,,0,,,0,,0,1258.0,E,Wallonia,Luxembourg,Arlon,47.8,0,,https://immovlan.be/en/detail/residence/for-sale/6870/saint-hubert/vbe31270,False,1585.0
House,mixed-building,750000.0,,4.0,2.0,,7500,Tournai,50.6056059,3.3880367,,,0,1,1.0,,1,,,0,,1,,D,Wallonia,Hainaut,Tournai,0.1,0,,https://immovlan.be/en/detail/mixed-building/for-sale/7500/tournai/vbd89984,False,
House,villa,1200000.0,503.0,5.0,3.0,Mertenhof 1,2460,Kasterlee,51.2548,4.964458,1998.0,Excellent,0,1,1.0,,0,4.0,,1,,1,4000.0,B,Flanders,Antwerp,Turnhout,7.7,0,,https://immovlan.be/en/detail/villa/for-sale/2460/kasterlee/rbw25486,False,2386.0
